WAYBILL,QTY ATM,SCHEDULE_SHIP_DATE,SCHEDULE_ARRIVAL_DATE,Dias_TranERP,Dias_Distance_Economy,Transito_24hrs,Actual_TT,Service,INVENTORY_AGING,Arrival_Categoria,Serial Receipt Date,Direccion_Destino,CITY,STATE,REGION,POSTAL_CODE,COUNTRY,WAYBILL.1,CREATION_DATE,Serial Receipt Date.1,CONFIRM_DATE,ACTUAL_DELIVERY_DATE,DISTANCE_BILLED,Pure_Freight,Fuel_Cost,Team_D.15mILE,Total_Feight_Inv,CARRIER,Direccion_Destino.1,des_lat,des_lon,orig_lat,orig_lon,Distance_Geopy,Distance Variation, Pct_Truck_used ,Year,Month,Day,Quarter,Shift_ShipConf,Wkday_ShipConf
1652697,1,1/28/2021 23:59,00:00.0,7,3,1,4,Single Driver,2,3-5 days early,00:00.0,CANTON MI 48187 US,CANTON,MI,East North Central Division,48187,US,1652697,1/28/2021 6:01,1/27/2021 19:46,1/28/2021 21:08,2/1/2021 0:00,1152.7,1267.97,449.55,0,1717.52,LUNA,CANTON MI 48187 US,42.3076547,-83.4868961,32.9451916,-97.0019719,980.8802637,-171.8197363, 0.06 ,2021,1,28,2021Q01,Second Shift,Friday
1663551,1,2/22/2021 23:59,00:00.0,4,1,1,2,Single Driver,11,3-5 days early,00:00.0,RICHARDSON TX 75081-6200 US,RICHARDSON,TX,West South Central Division,75081-6200,US,1663551,2/21/2021 12:45,2/12/2021 19:37,2/22/2021 19:54,2/24/2021 0:00,19.5,324.07,7.61,0,331.68,LUNA,RICHARDSON TX 75081-6200 US,32.9481789,-96.7297206,32.9451916,-97.0019719,15.82023412,-3.67976588, 0.06 ,2021,2,22,2021Q02,Second Shift,Tuesday
1663599,1,2/22/2021 23:59,00:00.0,4,1,1,3,Single Driver,11,1-2 days early,00:00.0,WICHITA KS 67211-3378 US,WICHITA,KS,West North Central Division,67211-3378,US,1663599,2/20/2021 1:36,2/12/2021 19:17,2/22/2021 19:55,2/25/2021 0:00,344.9,400,134.51,0,534.51,LUNA,WICHITA KS 67211-3378 US,37.6922361,-97.3375448,32.9451916,-97.0019719,327.8047538,-17.0952462, 0.06 ,2021,2,22,2021Q02,Second Shift,Tuesday
1663722,1,2/22/2021 23:59,00:00.0,4,3,2,3,Single Driver,6,1-2 days early,00:00.0,WHARTON NJ 07885-1800 US,WHARTON,NJ,Middle Atlantic Division,07885-1800,US,1663722,2/18/2021 10:27,2/17/2021 20:04,2/23/2021 0:34,2/26/2021 0:00,1531,1684.1,673.64,0,2357.74,LUNA,WHARTON NJ 07885-1800 US,40.8931546,-74.5818254,32.9451916,-97.0019719,1351.855597,-179.144403, 0.06 ,2021,2,23,2021Q02,Thrid Shift,Wednesday
1663723,1,2/22/2021 23:59,00:00.0,4,3,1,3,Single Driver,5,1-2 days early,00:00.0,TAMPA FL 33602-2509 US,TAMPA,FL,South Atlantic Division,33602-2509,US,1663723,2/22/2021 1:54,2/18/2021 19:04,2/23/2021 0:32,2/26/2021 0:00,1122.8,1235.08,437.89,0,1672.97,LUNA,TAMPA FL 33602-2509 US,27.9477595,-82.458444,32.9451916,-97.0019719,932.7016767,-190.0983233, 0.06 ,2021,2,23,2021Q02,Thrid Shift,Wednesday
1665641,1,2/23/2021 23:59,00:00.0,5,2,1,3,Single Driver,4,1-2 days early,00:00.0,ALPHARETTA GA 30005 US,ALPHARETTA,GA,South Atlantic Division,30005,US,1665641,2/22/2021 20:08,2/21/2021 20:22,2/25/2021 20:07,2/28/2021 0:00,830.6,913.66,323.93,0,1237.59,LUNA,ALPHARETTA GA 30005 US,34.0709576,-84.2747329,32.9451916,-97.0019719,738.3929407,-92.2070593, 0.06 ,2021,2,25,2021Q02,Second Shift,Friday
1667972,1,3/2/2021 23:59,00:00.0,7,3,1,2,Single Driver,50,3-5 days early,00:00.0,GAHANNA OH 43230-6602 US,GAHANNA,OH,East North Central Division,43230-6602,US,1667972,2/28/2021 14:11,1/12/2021 21:32,3/3/2021 2:52,3/5/2021 0:00,1102,1212.2,429.78,0,1641.98,LUNA,GAHANNA OH 43230-6602 US,40.0195625,-82.8791363,32.9451916,-97.0019719,923.6662621,-178.3337379, 0.06 ,2021,3,3,2021Q03,Thrid Shift,Thursday
1668017,1,3/1/2021 23:59,00:00.0,7,2,1,5,Single Driver,5,1-2 days early,00:00.0,COLUMBIA SC 29209 US,COLUMBIA,SC,South Atlantic Division,29209,US,1668017,2/28/2021 14:23,2/26/2021 20:58,3/3/2021 18:05,3/8/2021 0:00,1034.5,1137.95,403.46,0,1541.41,LUNA,COLUMBIA SC 29209 US,34.0007493,-81.0343313,32.9451916,-97.0019719,924.1731136,-110.3268864, 0.06 ,2021,3,3,2021Q03,Second Shift,Thursday
1668022,1,3/1/2021 23:59,00:00.0,4,4,2,2,Team driver,14,On Time,00:00.0,METHUEN MA 01844-1578 US,METHUEN,MA,New England Division,01844-1578,US,1668022,3/1/2021 20:24,2/17/2021 19:54,3/3/2021 16:30,3/5/2021 16:30,1845,2029.5,885.6,276.75,3191.85,LUNA,METHUEN MA 01844-1578 US,42.73199985,-71.18898949,32.9451916,-97.0019719,1556.429976,-288.570024, 0.06 ,2021,3,3,2021Q03,Second Shift,Thursday
1669117,1,3/4/2021 23:59,00:00.0,7,3,2,4,Team driver,7,1-2 days early,00:00.0,BOISE ID 83706-1433 US,BOISE,ID,Mountain Division,83706-1433,US,1669117,3/2/2021 21:07,2/26/2021 21:18,3/5/2021 15:59,3/9/2021 15:59,1610.5,1771.55,724.73,241.58,2737.85,LUNA,BOISE ID 83706-1433 US,43.60081625,-11.62421101,32.9451916,-97.0019719,4495.122,2884.622, 0.06 ,2021,3,5,2021Q03,First Shift,Weekend
1670673,1,3/8/2021 23:59,00:00.0,4,3,1,2,Single Driver,10,3-5 days early,00:00.0,ROANOKE VA 24012 US,ROANOKE,VA,South Atlantic Division,24012,US,1670673,3/7/2021 10:39,2/26/2021 21:30,3/8/2021 20:42,3/10/2021 0:00,1112.2,1223.42,433.76,0,1657.18,LUNA,ROANOKE VA 24012 US,37.273187,-79.9414252,32.9451916,-97.0019719,1009.776331,-102.423669, 0.06 ,2021,3,8,2021Q03,Second Shift,Tuesday
1670681,1,3/8/2021 23:59,00:00.0,4,2,1,2,Single Driver,27,3-5 days early,00:00.0,LITHONIA GA 30058 US,LITHONIA,GA,South Atlantic Division,30058,US,1670681,3/4/2021 22:48,2/10/2021 19:47,3/8/2021 20:12,3/10/2021 0:00,829.7,912.67,323.58,0,1236.25,LUNA,LITHONIA GA 30058 US,33.7123305,-84.1051939,32.9451916,-97.0019719,747.4969934,-82.2030066, 0.06 ,2021,3,8,2021Q03,Second Shift,Tuesday
1671713,1,3/9/2021 23:59,00:00.0,3,2,1,4,Team driver,3,1-2 Days late,00:00.0,ALBUQUERQUE NM 87107-4746 US,ALBUQUERQUE,NM,Mountain Division,87107-4746,US,1671713,3/8/2021 14:22,3/8/2021 1:33,3/10/2021 19:09,3/14/2021 19:09,631.9,695.09,246.44,94.79,1036.32,LUNA,ALBUQUERQUE NM 87107-4746 US,35.082651,-10.66279149,32.9451916,-97.0019719,4785.910204,4154.010204, 0.06 ,2021,3,10,2021Q03,Second Shift,Thursday
1672416,1,3/11/2021 23:59,00:00.0,5,3,1,1,Team driver,2,3-5 days early,00:00.0,WALLED LAKE MI 48390 US,WALLED LAKE,MI,East North Central Division,48390,US,1672416,3/10/2021 2:32,3/9/2021 22:41,3/11/2021 18:55,3/12/2021 18:55,1173,1290.3,457.47,175.95,1923.72,LUNA,WALLED LAKE MI 48390 US,42.537811,-83.4810481,32.9451916,-97.0019719,990.7003762,-182.2996238, 0.06 ,2021,3,11,2021Q03,Second Shift,Friday
1673907,1,3/15/2021 23:59,00:00.0,7,1,1,1,Team driver,17,> 5 days early,00:00.0,SPRINGFIELD MO 65803-9565 US,SPRINGFIELD,MO,West North Central Division,65803-9565,US,1673907,3/12/2021 1:52,2/26/2021 21:24,3/15/2021 17:58,3/16/2021 17:58,414.2,455.62,161.54,62.13,679.29,LUNA,SPRINGFIELD MO 65803-9565 US,37.2166779,-93.2920373,32.9451916,-97.0019719,361.7312921,-52.4687079, 0.06 ,2021,3,15,2021Q03,Second Shift,Tuesday
1673950,1,3/15/2021 23:59,00:00.0,4,2,1,2,Single Driver,5,3-5 days early,00:00.0,MARSHALL WI 53559 US,MARSHALL,WI,East North Central Division,53559,US,1673950,3/13/2021 13:50,3/11/2021 14:45,3/15/2021 19:55,3/17/2021 0:00,986.9,1085.59,384.89,0,1470.48,LUNA,MARSHALL WI 53559 US,43.1683286,-89.0667775,32.9451916,-97.0019719,826.380382,-160.519618, 0.06 ,2021,3,15,2021Q03,Second Shift,Tuesday
1674014,1,3/15/2021 23:59,00:00.0,4,3,1,2,Single Driver,6,3-5 days early,00:00.0,CANTON MI 48187 US,CANTON,MI,East North Central Division,48187,US,1674014,3/11/2021 13:56,3/10/2021 13:56,3/15/2021 20:45,3/17/2021 0:00,1152.7,1267.97,449.55,0,1717.52,LUNA,CANTON MI 48187 US,42.3076547,-83.4868961,32.9451916,-97.0019719,980.8802637,-171.8197363, 0.06 ,2021,3,15,2021Q03,Second Shift,Tuesday
1674058,1,3/15/2021 23:59,00:00.0,4,3,2,4,Team driver,70,On Time,00:00.0,ORANGE CA 92865 US,ORANGE,CA,Pacific Division,92865,US,1674058,3/14/2021 16:44,1/5/2021 22:43,3/15/2021 23:15,3/19/2021 23:15,1414.3,1555.73,594.01,212.15,2361.88,LUNA,ORANGE CA 92865 US,33.8296318,-11.7868857,32.9451916,-97.0019719,4766.665282,3352.365282, 0.06 ,2021,3,15,2021Q03,Thrid Shift,Tuesday
1674060,1,3/15/2021 23:59,00:00.0,4,4,2,4,Team driver,5,On Time,00:00.0,MILPITAS CA 95035 US,MILPITAS,CA,Pacific Division,95035,US,1674060,3/11/2021 19:15,3/11/2021 9:26,3/15/2021 23:17,3/19/2021 23:17,1676.4,1844.04,771.14,251.46,2866.64,LUNA,MILPITAS CA 95035 US,37.431359,-12.18852523,32.9451916,-97.0019719,4639.13977,2962.73977, 0.06 ,2021,3,15,2021Q03,Thrid Shift,Tuesday
1674480,1,3/16/2021 23:59,00:00.0,3,2,1,2,Single Driver,9,1-2 days early,00:00.0,COLUMBIA SC 29203-9716 US,COLUMBIA,SC,South Atlantic Division,29203-9716,US,1674480,3/15/2021 23:24,3/8/2021 15:10,3/16/2021 21:28,3/18/2021 0:00,1034.5,1137.95,403.46,0,1541.41,LUNA,COLUMBIA SC 29203-9716 US,34.0007493,-81.0343313,32.9451916,-97.0019719,924.1731136,-110.3268864, 0.06 ,2021,3,16,2021Q03,Second Shift,Wednesday
1675090,1,3/17/2021 23:59,00:00.0,5,1,1,2,Single Driver,5,3-5 days early,00:00.0,OLATHE KS 66061-5880 US,OLATHE,KS,West North Central Division,66061-5880,US,1675090,3/14/2021 3:51,3/13/2021 3:51,3/17/2021 22:20,3/19/2021 0:00,475.8,523.38,185.56,0,708.94,LUNA,OLATHE KS 66061-5880 US,38.87901835,-94.8219013,32.9451916,-97.0019719,426.9536522,-48.8463478, 0.06 ,2021,3,17,2021Q03,Thrid Shift,Thursday
1675101,1,3/17/2021 23:59,00:00.0,5,4,2,4,Team driver,9,1-2 days early,00:00.0,TUKWILA WA 98188-4638 US,TUKWILA,WA,Pacific Division,98188-4638,US,1675101,3/14/2021 11:28,3/9/2021 18:23,3/18/2021 1:04,3/22/2021 1:04,2108.9,2319.79,1096.63,316.34,3732.75,LUNA,TUKWILA WA 98188-4638 US,47.4627356,-12.22559156,32.9451916,-97.0019719,4370.001802,2261.101802, 0.06 ,2021,3,18,2021Q03,Thrid Shift,Friday
1675124,1,3/17/2021 23:59,00:00.0,7,4,2,4,Team driver,9,3-5 days early,00:00.0,SEATTLE WA 98126 US,SEATTLE,WA,Pacific Division,98126,US,1675124,3/13/2021 17:41,3/9/2021 21:49,3/18/2021 1:02,3/22/2021 1:02,2107.3,2318.03,1095.8,316.1,3729.92,LUNA,SEATTLE WA 98126 US,47.6038321,-12.23300624,32.9451916,-97.0019719,4366.270529,2258.970529, 0.06 ,2021,3,18,2021Q03,Thrid Shift,Friday
1675192,2,3/17/2021 23:59,00:00.0,7,3,1,1,Team driver,4,> 5 days early,00:00.0,WAYNESBORO VA 22980-1947 US,WAYNESBORO,VA,South Atlantic Division,22980-1947,US,1675192,3/15/2021 14:51,3/15/2021 0:51,3/18/2021 1:00,3/19/2021 1:00,1196.1,1315.71,466.48,179.42,1961.6,LUNA,WAYNESBORO VA 22980-1947 US,38.0686668,-78.8893999,32.9451916,-97.0019719,1078.228899,-117.871101, 0.11 ,2021,3,18,2021Q03,Thrid Shift,Friday
1675212,1,3/17/2021 23:59,00:00.0,7,1,1,1,Team driver,13,> 5 days early,00:00.0,BOSSIER CITY LA 71111 US,BOSSIER CITY,LA,West South Central Division,71111,US,1675212,3/16/2021 20:41,3/5/2021 21:38,3/17/2021 22:20,3/18/2021 22:20,210.5,400,82.1,31.58,513.67,LUNA,BOSSIER CITY LA 71111 US,32.5369356,-93.6952689,32.9451916,-97.0019719,194.6117437,-15.8882563, 0.06 ,2021,3,17,2021Q03,Thrid Shift,Thursday
1675842,1,3/18/2021 23:59,00:00.0,5,3,2,4,Single Driver,36,1-2 days early,00:00.0,POMPANO BEACH FL 33073-3083 US,POMPANO BEACH,FL,South Atlantic Division,33073-3083,US,1675842,3/15/2021 12:05,2/11/2021 17:32,3/18/2021 18:53,3/22/2021 0:00,1293.5,1422.85,530.34,0,1953.19,LUNA,POMPANO BEACH FL 33073-3083 US,26.2728048,-80.1346822,32.9451916,-97.0019719,1112.524199,-180.975801, 0.06 ,2021,3,18,2021Q03,Second Shift,Friday
1675848,1,3/18/2021 23:59,00:00.0,5,1,1,4,Single Driver,11,1-2 days early,00:00.0,SLIDELL LA 70458-8058 US,SLIDELL,LA,West South Central Division,70458-8058,US,1675848,3/16/2021 7:46,3/8/2021 15:18,3/18/2021 20:10,3/22/2021 0:00,534.2,587.62,208.34,0,795.96,LUNA,SLIDELL LA 70458-8058 US,30.2751945,-89.7811745,32.9451916,-97.0019719,463.6502065,-70.5497935, 0.06 ,2021,3,18,2021Q03,Second Shift,Friday
1676475,1,3/19/2021 23:59,00:00.0,5,1,1,1,Team driver,17,1-2 days early,00:00.0,JACKSON MS 39202-3407 US,JACKSON,MS,East South Central Division,39202-3407,US,1676475,3/21/2021 20:13,3/5/2021 21:51,3/22/2021 15:59,3/23/2021 15:59,422,464.2,164.58,63.3,692.08,LUNA,JACKSON MS 39202-3407 US,32.2990021,-90.1847691,32.9451916,-97.0019719,399.9615378,-22.0384622, 0.06 ,2021,3,22,2021Q03,First Shift,Tuesday
1677893,1,3/23/2021 23:59,00:00.0,6,3,2,2,Team driver,14,3-5 days early,00:00.0,HAMILTON TOWNSHIP NJ 08611-3226 US,HAMILTON TOWNSHIP,NJ,Middle Atlantic Division,08611-3226,US,1677893,3/19/2021 17:52,3/10/2021 16:53,3/23/2021 23:40,3/25/2021 23:40,1503.8,1654.18,661.67,225.57,2541.42,LUNA,HAMILTON TOWNSHIP NJ 08611-3226 US,40.2307818,-74.7236162,32.9451916,-97.0019719,1332.145809,-171.654191, 0.06 ,2021,3,23,2021Q03,Thrid Shift,Wednesday
1678648,2,3/24/2021 23:59,00:00.0,7,4,2,4,Team driver,3,1-2 days early,00:00.0,PORTLAND OR 97220 US,PORTLAND,OR,Pacific Division,97220,US,1678648,3/23/2021 2:59,3/23/2021 1:41,3/25/2021 16:15,3/29/2021 16:15,2041,2245.1,1040.91,306.15,3592.16,LUNA,PORTLAND OR 97220 US,45.5202471,-12.26741949,32.9451916,-97.0019719,4416.069118,2375.069118, 0.11 ,2021,3,25,2021Q03,Second Shift,Friday
1686272,1,4/13/2021 23:59,00:00.0,3,3,2,2,Team driver,6,1-2 days early,00:00.0,BUDD LAKE NJ 07828-4301 US,BUDD LAKE,NJ,Middle Atlantic Division,07828-4301,US,1686272,4/9/2021 8:38,4/8/2021 8:38,4/13/2021 18:39,4/15/2021 18:39,1529.1,1682.01,672.8,229.37,2584.18,LUNA,BUDD LAKE NJ 07828-4301 US,40.87389,-74.73827738,32.9451916,-97.0019719,1343.627549,-185.472451, 0.06 ,2021,4,13,2021Q04,Second Shift,Wednesday
1688844,1,4/19/2021 23:59,00:00.0,3,4,2,3,Single Driver,5,1-2 days early,00:00.0,WATERBURY VT 5676 US,WATERBURY,VT,New England Division,5676,US,1688844,4/17/2021 2:13,4/15/2021 20:45,4/19/2021 20:51,4/22/2021 0:00,1804.4,1984.84,866.11,0,2850.95,LUNA,WATERBURY VT 5676 US,44.352186,-72.778419,32.9451916,-97.0019719,1519.647921,-284.752079, 0.06 ,2021,4,19,2021Q04,Second Shift,Tuesday
1689427,1,4/20/2021 23:59,00:00.0,3,2,1,1,Team driver,9,1-2 days early,00:00.0,SHEPHERDSVILLE KY 40165-6315 US,SHEPHERDSVILLE,KY,East South Central Division,40165-6315,US,1689427,4/20/2021 7:07,4/12/2021 19:06,4/20/2021 19:51,4/21/2021 19:51,834.4,917.84,325.42,125.16,1368.42,LUNA,SHEPHERDSVILLE KY 40165-6315 US,37.9885936,-85.7158246,32.9451916,-97.0019719,724.5462929,-109.8537071, 0.06 ,2021,4,20,2021Q04,Second Shift,Wednesday
1689989,1,4/21/2021 23:59,00:00.0,5,4,2,5,Single Driver,6,1-2 days early,00:00.0,SANDY OR 97055 US,SANDY,OR,Pacific Division,97055,US,1689989,4/17/2021 15:39,4/16/2021 15:39,4/21/2021 20:40,4/26/2021 0:00,2033.4,2236.73,1037.03,0,3273.77,LUNA,SANDY OR 97055 US,45.3974065,-12.22614548,32.9451916,-97.0019719,4421.033069,2387.638069, 0.06 ,2021,4,21,2021Q04,Second Shift,Thursday
1691722,1,4/26/2021 23:59,00:00.0,4,1,1,1,Team driver,27,3-5 days early,00:00.0,HOUSTON TX 77073-5120 US,HOUSTON,TX,West South Central Division,77073-5120,US,1691722,4/22/2021 9:42,3/31/2021 20:37,4/27/2021 0:19,4/28/2021 0:19,250.6,324.07,97.73,37.59,459.39,LUNA,HOUSTON TX 77073-5120 US,29.7589382,-95.3676974,32.9451916,-97.0019719,239.8308826,-10.7691174, 0.06 ,2021,4,27,2021Q04,Thrid Shift,Wednesday
1691739,2,4/26/2021 23:59,00:00.0,3,1,1,1,Team driver,6,1-2 days early,00:00.0,CONWAY AR 72032-4430 US,CONWAY,AR,West South Central Division,72032-4430,US,1691739,4/22/2021 9:25,4/21/2021 16:26,4/26/2021 21:34,4/27/2021 21:34,356.8,400,139.15,53.52,592.67,LUNA,CONWAY AR 72032-4430 US,35.0886963,-92.4421011,32.9451916,-97.0019719,300.4796485,-56.3203515, 0.11 ,2021,4,26,2021Q04,Second Shift,Tuesday
1692168,1,4/27/2021 23:59,00:00.0,3,3,2,4,Team driver,6,1-2 Days late,00:00.0,BOISE ID 83706-1433 US,BOISE,ID,Mountain Division,83706-1433,US,1692168,4/26/2021 9:55,4/21/2021 16:26,4/27/2021 16:06,5/1/2021 16:06,1610.5,1771.55,724.73,241.58,2737.85,LUNA,BOISE ID 83706-1433 US,43.60081625,-11.62421101,32.9451916,-97.0019719,4495.122,2884.622, 0.06 ,2021,4,27,2021Q04,Second Shift,Wednesday
1694200,1,4/30/2021 23:59,00:00.0,7,2,1,3,Single Driver,6,3-5 days early,00:00.0,ANOKA MN 55303 US,ANOKA,MN,West North Central Division,55303,US,1694200,4/26/2021 19:34,4/25/2021 19:34,4/30/2021 22:01,5/3/2021 0:00,961.1,1057.21,374.83,0,1432.04,LUNA,ANOKA MN 55303 US,45.2077506,-93.384074,32.9451916,-97.0019719,867.7396548,-93.3603452, 0.06 ,2021,4,30,2021Q04,Thrid Shift,Weekend
1694797,1,5/3/2021 23:59,00:00.0,7,1,1,1,Team driver,3,> 5 days early,00:00.0,BOSSIER CITY LA 71111 US,BOSSIER CITY,LA,West South Central Division,71111,US,1694797,5/3/2021 15:32,4/30/2021 20:34,5/3/2021 18:48,5/4/2021 18:48,210.5,400,82.1,31.58,513.67,LUNA,BOSSIER CITY LA 71111 US,32.5369356,-93.6952689,32.9451916,-97.0019719,194.6117437,-15.8882563, 0.06 ,2021,5,3,2021Q05,Second Shift,Tuesday
1694798,1,5/3/2021 23:59,00:00.0,3,1,1,1,Team driver,11,1-2 days early,00:00.0,HOUSTON TX 77032 US,HOUSTON,TX,West South Central Division,77032,US,1694798,5/1/2021 22:17,4/23/2021 18:13,5/3/2021 18:54,5/4/2021 18:54,250.6,324.07,97.73,37.59,459.39,LUNA,HOUSTON TX 77032 US,29.7589382,-95.3676974,32.9451916,-97.0019719,239.8308826,-10.7691174, 0.06 ,2021,5,3,2021Q05,Second Shift,Tuesday
1694932,1,5/3/2021 23:59,00:00.0,3,2,1,2,Single Driver,3,1-2 days early,00:00.0,CHARLOTTE NC 28208-2735 US,CHARLOTTE,NC,South Atlantic Division,28208-2735,US,1694932,5/1/2021 3:56,4/30/2021 20:53,5/3/2021 20:48,5/5/2021 0:00,1042,1146.2,406.38,0,1552.58,LUNA,CHARLOTTE NC 28208-2735 US,35.2272086,-80.8430827,32.9451916,-97.0019719,938.8211598,-103.1788402, 0.06 ,2021,5,3,2021Q05,Second Shift,Tuesday
1696451,1,5/6/2021 23:59,00:00.0,6,2,1,1,Team driver,7,3-5 days early,00:00.0,MADISON AL 35756-4634 US,MADISON,AL,East South Central Division,35756-4634,US,1696451,5/4/2021 19:31,4/30/2021 20:25,5/6/2021 20:37,5/7/2021 20:37,663.7,730.07,258.84,99.56,1088.47,LUNA,MADISON AL 35756-4634 US,34.7140337,-86.75468971,32.9451916,-97.0019719,601.6026139,-62.0973861, 0.06 ,2021,5,6,2021Q05,Second Shift,Friday
1697340,1,5/7/2021 23:59,00:00.0,3,1,1,1,Team driver,6,1-2 Days late,00:00.0,KILLEEN TX 76541 US,KILLEEN,TX,West South Central Division,76541,US,1697340,5/7/2021 1:15,5/4/2021 21:09,5/10/2021 12:30,5/11/2021 12:30,177,324.07,69.03,26.55,419.65,LUNA,KILLEEN TX 76541 US,31.1171441,-97.727796,32.9451916,-97.0019719,132.9650005,-44.0349995, 0.06 ,2021,5,10,2021Q05,First Shift,Tuesday
1697345,1,5/7/2021 23:59,00:00.0,3,1,1,3,Single Driver,15,1-2 days early,00:00.0,LENEXA KS 66215-2029 US,LENEXA,KS,West North Central Division,66215-2029,US,1697345,5/4/2021 5:25,4/23/2021 16:10,5/7/2021 22:53,5/10/2021 0:00,475.5,523.05,185.45,0,708.5,LUNA,LENEXA KS 66215-2029 US,38.9697458,-94.7845837,32.9451916,-97.0019719,433.5269647,-41.9730353, 0.06 ,2021,5,7,2021Q05,Thrid Shift,Weekend
1700288,1,5/14/2021 23:59,00:00.0,7,2,1,3,Single Driver,12,3-5 days early,00:00.0,BLUFFTON SC 29910-8924 US,BLUFFTON,SC,South Atlantic Division,29910-8924,US,1700288,5/12/2021 23:40,5/3/2021 14:38,5/14/2021 19:13,5/17/2021 0:00,1040.9,1144.99,405.95,0,1550.95,LUNA,BLUFFTON SC 29910-8924 US,32.2371465,-80.8603868,32.9451916,-97.0019719,941.9695742,-98.9334258, 0.06 ,2021,5,14,2021Q05,Second Shift,Weekend
1700903,1,5/17/2021 23:59,00:00.0,4,1,1,1,Team driver,15,3-5 days early,00:00.0,SPRINGFIELD MO 65803-9565 US,SPRINGFIELD,MO,West North Central Division,65803-9565,US,1700903,5/15/2021 18:17,5/3/2021 13:37,5/17/2021 17:55,5/18/2021 17:55,414.2,455.62,161.54,62.13,679.29,LUNA,SPRINGFIELD MO 65803-9565 US,37.2166779,-93.2920373,32.9451916,-97.0019719,361.7312921,-52.4687079, 0.06 ,2021,5,17,2021Q05,Second Shift,Tuesday
1700985,1,5/17/2021 23:59,00:00.0,3,3,2,2,Team driver,20,1-2 days early,00:00.0,COLUMBIA MD 21046 US,COLUMBIA,MD,South Atlantic Division,21046,US,1700985,5/13/2021 9:01,4/27/2021 23:22,5/17/2021 20:24,5/19/2021 20:24,1363,1499.3,572.46,204.45,2276.21,LUNA,COLUMBIA MD 21046 US,39.1938429,-76.86460919,32.9451916,-97.0019719,1203.483954,-159.516046, 0.06 ,2021,5,17,2021Q05,Second Shift,Tuesday
1701962,1,5/19/2021 23:59,00:00.0,7,2,1,2,Single Driver,37,> 5 days early,00:00.0,WATERTOWN WI 53098 US,WATERTOWN,WI,East North Central Division,53098,US,1701962,5/15/2021 19:44,4/13/2021 14:59,5/19/2021 21:11,5/21/2021 0:00,994.3,1093.73,387.78,0,1481.51,LUNA,WATERTOWN WI 53098 US,43.1948481,-88.7286352,32.9451916,-97.0019719,837.5939929,-156.7060071, 0.06 ,2021,5,19,2021Q05,Second Shift,Thursday
1704061,1,5/24/2021 23:59,00:00.0,7,2,1,1,Team driver,48,> 5 days early,00:00.0,PELHAM AL 35124 US,PELHAM,AL,East South Central Division,35124,US,1704061,5/20/2021 10:15,4/6/2021 19:18,5/24/2021 19:11,5/25/2021 19:11,658.2,724.02,256.7,98.73,1079.45,LUNA,PELHAM AL 35124 US,33.285669,-86.8099884,32.9451916,-97.0019719,591.2984558,-66.9015442, 0.06 ,2021,5,24,2021Q05,Second Shift,Tuesday
1704501,1,5/25/2021 23:59,00:00.0,2,1,1,1,Team driver,33,1-2 days early,00:00.0,WICHITA KS 67211-3378 US,WICHITA,KS,West North Central Division,67211-3378,US,1704501,5/21/2021 19:44,4/22/2021 19:30,5/25/2021 18:09,5/26/2021 18:09,344.9,400,134.51,51.74,586.25,LUNA,WICHITA KS 67211-3378 US,37.6922361,-97.3375448,32.9451916,-97.0019719,327.8047538,-17.0952462, 0.06 ,2021,5,25,2021Q05,Second Shift,Wednesday
1705938,1,5/27/2021 23:59,00:00.0,5,2,1,4,Single Driver,18,1-2 days early,00:00.0,DES MOINES IA 50321-1250 US,DES MOINES,IA,West North Central Division,50321-1250,US,1705938,5/24/2021 22:16,5/10/2021 17:10,5/28/2021 13:29,6/1/2021 0:00,695,764.5,271.05,0,1035.55,LUNA,DES MOINES IA 50321-1250 US,41.5910323,-93.6046655,32.9451916,-97.0019719,624.7929777,-70.2070223, 0.06 ,2021,5,28,2021Q05,First Shift,Weekend
1706573,1,5/28/2021 23:59,00:00.0,4,1,1,4,Single Driver,24,1-2 days early,00:00.0,SPRINGFIELD MO 65803-9565 US,SPRINGFIELD,MO,West North Central Division,65803-9565,US,1706573,5/24/2021 1:54,5/4/2021 20:52,5/28/2021 18:04,6/1/2021 0:00,414.2,455.62,161.54,0,617.16,LUNA,SPRINGFIELD MO 65803-9565 US,37.2166779,-93.2920373,32.9451916,-97.0019719,361.7312921,-52.4687079, 0.06 ,2021,5,28,2021Q05,Second Shift,Weekend
1707341,1,6/1/2021 23:59,00:00.0,3,1,1,1,Team driver,40,1-2 days early,00:00.0,LENEXA KS 66215-2029 US,LENEXA,KS,West North Central Division,66215-2029,US,1707341,5/28/2021 14:00,4/22/2021 19:16,6/1/2021 19:00,6/2/2021 19:00,475.5,523.05,185.45,71.33,779.82,LUNA,LENEXA KS 66215-2029 US,38.9697458,-94.7845837,32.9451916,-97.0019719,433.5269647,-41.9730353, 0.06 ,2021,6,1,2021Q06,Second Shift,Wednesday
1711385,1,6/9/2021 23:59,00:00.0,5,2,1,2,Single Driver,8,3-5 days early,00:00.0,CHARLOTTE NC 28273 US,CHARLOTTE,NC,South Atlantic Division,28273,US,1711385,6/5/2021 9:23,6/2/2021 15:42,6/9/2021 19:02,6/11/2021 0:00,1042,1146.2,406.38,0,1552.58,LUNA,CHARLOTTE NC 28273 US,35.2272086,-80.8430827,32.9451916,-97.0019719,938.8211598,-103.1788402, 0.06 ,2021,6,9,2021Q06,Second Shift,Thursday
1712772,1,6/11/2021 23:59,00:00.0,5,2,1,3,Single Driver,3,3-5 days early,00:00.0,ALPHARETTA GA 30005 US,ALPHARETTA,GA,South Atlantic Division,30005,US,1712772,6/9/2021 20:55,6/8/2021 20:55,6/11/2021 18:21,6/14/2021 0:00,830.6,913.66,323.93,0,1237.59,LUNA,ALPHARETTA GA 30005 US,34.0709576,-84.2747329,32.9451916,-97.0019719,738.3929407,-92.2070593, 0.06 ,2021,6,11,2021Q06,Second Shift,Weekend
1713566,1,6/14/2021 23:59,00:00.0,3,2,1,1,Team driver,12,1-2 days early,00:00.0,LITHONIA GA 30058 US,LITHONIA,GA,South Atlantic Division,30058,US,1713566,6/11/2021 2:25,6/3/2021 15:09,6/14/2021 18:01,6/15/2021 18:01,829.7,912.67,323.58,124.46,1360.71,LUNA,LITHONIA GA 30058 US,33.7123305,-84.1051939,32.9451916,-97.0019719,747.4969934,-82.2030066, 0.06 ,2021,6,14,2021Q06,Second Shift,Tuesday
1713569,2,6/14/2021 23:59,00:00.0,4,2,1,2,Single Driver,5,3-5 days early,00:00.0,CINCINNATI OH 45211 US,CINCINNATI,OH,East North Central Division,45211,US,1713569,6/9/2021 19:39,6/9/2021 19:33,6/14/2021 17:29,6/16/2021 0:00,955.6,1051.16,372.68,0,1423.84,LUNA,CINCINNATI OH 45211 US,39.1014537,-84.5124602,32.9451916,-97.0019719,817.0682133,-138.5317867, 0.11 ,2021,6,14,2021Q06,Second Shift,Tuesday
1714899,1,6/16/2021 23:59,00:00.0,7,2,1,1,Team driver,51,> 5 days early,00:00.0,JACKSONVILLE FL 32207 US,JACKSONVILLE,FL,South Atlantic Division,32207,US,1714899,6/13/2021 15:39,4/27/2021 19:29,6/16/2021 20:06,6/17/2021 20:06,1015.7,1117.27,396.12,152.36,1665.75,LUNA,JACKSONVILLE FL 32207 US,30.344914,-81.69100851,32.9451916,-97.0019719,919.1538435,-96.5461565, 0.06 ,2021,6,16,2021Q06,Second Shift,Thursday
1716385,1,6/18/2021 23:59,00:00.0,7,2,1,3,Single Driver,9,3-5 days early,00:00.0,LITHONIA GA 30058-4613 US,LITHONIA,GA,South Atlantic Division,30058-4613,US,1716385,6/14/2021 0:13,6/10/2021 19:28,6/18/2021 20:57,6/21/2021 0:00,829.7,912.67,323.58,0,1236.25,LUNA,LITHONIA GA 30058-4613 US,33.7123305,-84.1051939,32.9451916,-97.0019719,747.4969934,-82.2030066, 0.06 ,2021,6,18,2021Q06,Second Shift,Weekend
1717202,1,6/21/2021 23:59,00:00.0,7,3,2,3,Single Driver,55,3-5 days early,00:00.0,LAUREL MD 20707 US,LAUREL,MD,South Atlantic Division,20707,US,1717202,6/19/2021 8:09,4/27/2021 22:42,6/21/2021 22:08,6/24/2021 0:00,1359,1494.9,570.78,0,2065.68,LUNA,LAUREL MD 20707 US,39.1044123,-76.8669233,32.9451916,-97.0019719,1201.808926,-157.191074, 0.06 ,2021,6,21,2021Q06,Thrid Shift,Tuesday
1717248,1,6/21/2021 23:59,00:00.0,3,3,2,3,Single Driver,4,1-2 days early,00:00.0,YORK PA 17406-8474 US,YORK,PA,Middle Atlantic Division,17406-8474,US,1717248,6/18/2021 14:21,6/18/2021 3:43,6/21/2021 22:07,6/24/2021 0:00,1410.4,1551.44,592.37,0,2143.81,LUNA,YORK PA 17406-8474 US,39.9624624,-76.727707,32.9451916,-97.0019719,1224.967311,-185.432689, 0.06 ,2021,6,21,2021Q06,Thrid Shift,Tuesday
1717289,1,6/21/2021 23:59,00:00.0,3,2,1,1,Team driver,12,1-2 days early,00:00.0,CHARLOTTE NC 28208-2735 US,CHARLOTTE,NC,South Atlantic Division,28208-2735,US,1717289,6/19/2021 2:04,6/10/2021 23:40,6/22/2021 0:31,6/23/2021 0:31,1042,1146.2,406.38,156.3,1708.88,LUNA,CHARLOTTE NC 28208-2735 US,35.2272086,-80.8430827,32.9451916,-97.0019719,938.8211598,-103.1788402, 0.06 ,2021,6,22,2021Q06,Thrid Shift,Wednesday
1717353,1,6/21/2021 23:59,00:00.0,2,2,1,4,Team driver,20,3-5 days late,00:00.0,ALBUQUERQUE NM 87107-4746 US,ALBUQUERQUE,NM,Mountain Division,87107-4746,US,1717353,6/17/2021 22:30,6/3/2021 14:46,6/22/2021 19:02,6/26/2021 19:02,631.9,695.09,246.44,94.79,1036.32,LUNA,ALBUQUERQUE NM 87107-4746 US,35.082651,-10.66279149,32.9451916,-97.0019719,4785.910204,4154.010204, 0.06 ,2021,6,22,2021Q06,Second Shift,Wednesday
1717354,1,6/21/2021 23:59,00:00.0,3,3,2,2,Team driver,20,On Time,00:00.0,WHARTON NJ 07885-1800 US,WHARTON,NJ,Middle Atlantic Division,07885-1800,US,1717354,6/20/2021 9:24,6/3/2021 14:46,6/22/2021 19:08,6/24/2021 19:08,1531,1684.1,673.64,229.65,2587.39,LUNA,WHARTON NJ 07885-1800 US,40.8931546,-74.5818254,32.9451916,-97.0019719,1351.855597,-179.144403, 0.06 ,2021,6,22,2021Q06,Second Shift,Wednesday
1717391,1,6/21/2021 23:59,00:00.0,3,4,2,4,Team driver,5,1-2 Days late,00:00.0,PORTLAND OR 97219-6872 US,PORTLAND,OR,Pacific Division,97219-6872,US,1717391,6/19/2021 14:00,6/18/2021 14:00,6/22/2021 21:34,6/26/2021 21:34,2041,2245.1,1040.91,306.15,3592.16,LUNA,PORTLAND OR 97219-6872 US,45.5202471,-12.26741949,32.9451916,-97.0019719,4416.069118,2375.069118, 0.06 ,2021,6,22,2021Q06,Second Shift,Wednesday
1717392,1,6/21/2021 23:59,00:00.0,4,3,1,2,Single Driver,4,3-5 days early,00:00.0,CANTON MI 48187-2435 US,CANTON,MI,East North Central Division,48187-2435,US,1717392,6/20/2021 1:39,6/18/2021 13:24,6/21/2021 22:04,6/23/2021 0:00,1152.7,1267.97,449.55,0,1717.52,LUNA,CANTON MI 48187-2435 US,42.3076547,-83.4868961,32.9451916,-97.0019719,980.8802637,-171.8197363, 0.06 ,2021,6,21,2021Q06,Thrid Shift,Tuesday
1717892,1,6/22/2021 23:59,00:00.0,3,2,1,2,Single Driver,2,1-2 days early,00:00.0,GASTONIA NC 28052 US,GASTONIA,NC,South Atlantic Division,28052,US,1717892,6/22/2021 18:58,6/21/2021 17:36,6/23/2021 14:55,6/25/2021 0:00,1025.3,1127.83,399.87,0,1527.7,LUNA,GASTONIA NC 28052 US,35.2503318,-81.18305016,32.9451916,-97.0019719,919.8177831,-105.4822169, 0.06 ,2021,6,23,2021Q06,First Shift,Thursday
1717982,1,6/22/2021 23:59,00:00.0,3,4,2,2,Team driver,63,On Time,00:00.0,COLCHESTER VT 05446-7978 US,COLCHESTER,VT,New England Division,05446-7978,US,1717982,6/20/2021 13:56,4/22/2021 15:56,6/23/2021 16:40,6/25/2021 16:40,1801.9,1982.09,864.91,270.29,3117.29,LUNA,COLCHESTER VT 05446-7978 US,44.5360015,-73.2058402,32.9451916,-97.0019719,1505.285978,-296.614022, 0.06 ,2021,6,23,2021Q06,Second Shift,Thursday
1717997,1,6/22/2021 23:59,00:00.0,3,2,1,2,Single Driver,57,1-2 days early,00:00.0,ANOKA MN 55303 US,ANOKA,MN,West North Central Division,55303,US,1717997,6/18/2021 20:47,4/27/2021 22:43,6/22/2021 23:03,6/24/2021 0:00,961.1,1057.21,374.83,0,1432.04,LUNA,ANOKA MN 55303 US,45.2077506,-93.384074,32.9451916,-97.0019719,867.7396548,-93.3603452, 0.06 ,2021,6,22,2021Q06,Thrid Shift,Wednesday
1718052,2,6/22/2021 23:59,00:00.0,3,2,1,1,Team driver,3,On Time,00:00.0,MOUNT WASHINGTON KY 40047-7309 US,MOUNT WASHINGTON,KY,East South Central Division,40047-7309,US,1718052,6/23/2021 14:39,6/22/2021 13:56,6/24/2021 21:18,6/25/2021 21:18,839,922.9,327.21,125.85,1375.96,LUNA,MOUNT WASHINGTON KY 40047-7309 US,38.0500627,-85.5457877,32.9451916,-97.0019719,734.7459803,-104.2540197, 0.11 ,2021,6,24,2021Q06,Second Shift,Friday
1718514,1,6/23/2021 23:59,00:00.0,7,3,2,3,Single Driver,3,3-5 days early,00:00.0,EAST HAVEN CT 06512-4113 US,EAST HAVEN,CT,New England Division,06512-4113,US,1718514,6/24/2021 3:00,6/22/2021 14:13,6/25/2021 12:23,6/28/2021 0:00,1645.7,1810.27,740.57,0,2550.84,LUNA,EAST HAVEN CT 06512-4113 US,41.2762081,-72.8684337,32.9451916,-97.0019719,1445.135993,-200.564007, 0.06 ,2021,6,25,2021Q06,First Shift,Weekend
1718518,1,6/23/2021 23:59,00:00.0,2,1,1,1,Team driver,1,1-2 days early,00:00.0,BOSSIER CITY LA 71111 US,BOSSIER CITY,LA,West South Central Division,71111,US,1718518,6/22/2021 21:55,6/22/2021 20:42,6/23/2021 20:20,6/24/2021 20:20,210.5,400,82.1,31.58,513.67,LUNA,BOSSIER CITY LA 71111 US,32.5369356,-93.6952689,32.9451916,-97.0019719,194.6117437,-15.8882563, 0.06 ,2021,6,23,2021Q06,Second Shift,Thursday
1718543,1,6/23/2021 23:59,00:00.0,5,3,2,5,Team driver,3,1-2 Days late,00:00.0,SAN DIEGO CA 92126 US,SAN DIEGO,CA,Pacific Division,92126,US,1718543,6/24/2021 12:47,6/22/2021 14:43,6/24/2021 21:12,6/29/2021 21:12,1357.3,1493.03,570.07,203.6,2266.69,LUNA,SAN DIEGO CA 92126 US,32.8246632,-11.71520148,32.9451916,-97.0019719,4801.25464,3443.95464, 0.06 ,2021,6,24,2021Q06,Second Shift,Friday
1724794,2,7/7/2021 23:59,00:00.0,2,2,1,2,Single Driver,7,1-2 days early,00:00.0,MARSHALL WI 53559 US,MARSHALL,WI,East North Central Division,53559,US,1724794,7/4/2021 22:27,7/1/2021 19:13,7/7/2021 20:49,7/9/2021 0:00,986.9,1085.59,384.89,0,1470.48,LUNA,MARSHALL WI 53559 US,43.1683286,-89.0667775,32.9451916,-97.0019719,826.380382,-160.519618, 0.11 ,2021,7,7,2021Q07,Second Shift,Thursday
1724822,1,7/7/2021 23:59,00:00.0,5,3,1,3,Single Driver,2,1-2 days early,00:00.0,ROANOKE VA 24012 US,ROANOKE,VA,South Atlantic Division,24012,US,1724822,7/7/2021 6:09,7/6/2021 20:12,7/8/2021 13:20,7/11/2021 0:00,1112.2,1223.42,433.76,0,1657.18,LUNA,ROANOKE VA 24012 US,37.273187,-79.9414252,32.9451916,-97.0019719,1009.776331,-102.423669, 0.06 ,2021,7,8,2021Q07,First Shift,Friday
1724856,1,7/7/2021 23:59,00:00.0,2,3,2,4,Single Driver,7,1-2 Days late,00:00.0,HAMILTON TOWNSHIP NJ 08611-3226 US,HAMILTON TOWNSHIP,NJ,Middle Atlantic Division,08611-3226,US,1724856,7/5/2021 14:18,7/1/2021 19:19,7/8/2021 13:18,7/12/2021 0:00,1503.8,1654.18,661.67,0,2315.85,LUNA,HAMILTON TOWNSHIP NJ 08611-3226 US,40.2307818,-74.7236162,32.9451916,-97.0019719,1332.145809,-171.654191, 0.06 ,2021,7,8,2021Q07,First Shift,Friday
1724949,1,7/7/2021 23:59,00:00.0,7,1,1,1,Team driver,6,3-5 days early,00:00.0,CONWAY AR 72032 US,CONWAY,AR,West South Central Division,72032,US,1724949,7/3/2021 21:18,7/2/2021 21:18,7/8/2021 13:19,7/9/2021 13:19,356.8,400,139.15,53.52,592.67,LUNA,CONWAY AR 72032 US,35.0886963,-92.4421011,32.9451916,-97.0019719,300.4796485,-56.3203515, 0.06 ,2021,7,8,2021Q07,First Shift,Friday
1725358,1,7/8/2021 23:59,00:00.0,4,2,1,3,Single Driver,3,1-2 days early,00:00.0,DES MOINES IA 50321-1250 US,DES MOINES,IA,West North Central Division,50321-1250,US,1725358,7/6/2021 21:55,7/6/2021 20:09,7/9/2021 14:21,7/12/2021 0:00,695,764.5,271.05,0,1035.55,LUNA,DES MOINES IA 50321-1250 US,41.5910323,-93.6046655,32.9451916,-97.0019719,624.7929777,-70.2070223, 0.06 ,2021,7,9,2021Q07,First Shift,Weekend
1728581,1,7/15/2021 23:59,00:00.0,4,3,2,4,Single Driver,3,1-2 days early,00:00.0,BUFFALO NY 14207 US,BUFFALO,NY,Middle Atlantic Division,14207,US,1728581,7/13/2021 15:20,7/13/2021 9:29,7/15/2021 17:14,7/19/2021 0:00,1390.3,1529.33,583.93,0,2113.26,LUNA,BUFFALO NY 14207 US,42.8867166,-78.8783922,32.9451916,-97.0019719,1200.275878,-190.024122, 0.06 ,2021,7,15,2021Q07,Second Shift,Friday
1730218,1,7/19/2021 23:59,00:00.0,7,2,1,1,Team driver,5,> 5 days early,00:00.0,LONDON KY 40741-7287 US,LONDON,KY,East South Central Division,40741-7287,US,1730218,7/15/2021 14:34,7/15/2021 14:30,7/19/2021 21:01,7/20/2021 21:01,874.1,961.51,340.9,131.12,1433.52,LUNA,LONDON KY 40741-7287 US,37.1289771,-84.0832646,32.9451916,-97.0019719,786.3515621,-87.7484379, 0.06 ,2021,7,19,2021Q07,Second Shift,Tuesday
1730219,1,7/19/2021 23:59,00:00.0,4,3,2,4,Single Driver,6,1-2 days early,00:00.0,WHARTON NJ 07885-1800 US,WHARTON,NJ,Middle Atlantic Division,07885-1800,US,1730219,7/14/2021 23:13,7/13/2021 23:13,7/19/2021 21:56,7/23/2021 0:00,1531,1684.1,673.64,0,2357.74,LUNA,WHARTON NJ 07885-1800 US,40.8931546,-74.5818254,32.9451916,-97.0019719,1351.855597,-179.144403, 0.06 ,2021,7,19,2021Q07,Second Shift,Tuesday
1730264,1,7/19/2021 23:59,00:00.0,7,4,2,4,Team driver,4,1-2 days early,00:00.0,KENT WA 98032-1195 US,KENT,WA,Pacific Division,98032-1195,US,1730264,7/17/2021 2:59,7/16/2021 18:11,7/20/2021 13:59,7/24/2021 13:59,2104,2314.4,1094.08,315.6,3724.08,LUNA,KENT WA 98032-1195 US,47.3826903,-12.22270272,32.9451916,-97.0019719,4372.066033,2268.066033, 0.06 ,2021,7,20,2021Q07,First Shift,Wednesday
1730862,1,7/20/2021 23:59,00:00.0,3,2,1,1,Team driver,2,1-2 days early,00:00.0,MOUNT WASHINGTON KY 40047-7309 US,MOUNT WASHINGTON,KY,East South Central Division,40047-7309,US,1730862,7/19/2021 15:14,7/19/2021 11:35,7/20/2021 20:45,7/21/2021 20:45,839,922.9,327.21,125.85,1375.96,LUNA,MOUNT WASHINGTON KY 40047-7309 US,38.0500627,-85.5457877,32.9451916,-97.0019719,734.7459803,-104.2540197, 0.06 ,2021,7,20,2021Q07,Second Shift,Wednesday
1733000,1,7/23/2021 23:59,00:00.0,7,3,2,3,Single Driver,7,1-2 days early,00:00.0,BERLIN PA 15530-1489 US,BERLIN,PA,Middle Atlantic Division,15530-1489,US,1733000,7/25/2021 7:48,7/20/2021 14:29,7/26/2021 17:21,7/29/2021 0:00,1290.6,1419.66,529.15,0,1948.81,LUNA,BERLIN PA 15530-1489 US,39.9206363,-78.9578022,32.9451916,-97.0019719,1111.686544,-178.913456, 0.06 ,2021,7,26,2021Q07,Second Shift,Tuesday
1733019,1,7/23/2021 23:59,00:00.0,10,1,1,1,Team driver,5,> 5 days early,00:00.0,HARLINGEN TX 78550 US,HARLINGEN,TX,West South Central Division,78550,US,1733019,7/22/2021 19:38,7/22/2021 14:51,7/26/2021 19:26,7/27/2021 19:26,542.1,623.42,211.42,81.32,916.15,LUNA,HARLINGEN TX 78550 US,26.1907543,-97.6960599,32.9451916,-97.0019719,467.0906319,-75.0093681, 0.06 ,2021,7,26,2021Q07,Second Shift,Tuesday
1733023,2,7/23/2021 23:59,00:00.0,7,2,1,1,Team driver,7,3-5 days early,00:00.0,COON RAPIDS MN 55433-5856 US,COON RAPIDS,MN,West North Central Division,55433-5856,US,1733023,7/22/2021 20:50,7/19/2021 19:22,7/26/2021 17:56,7/27/2021 17:56,954.8,1050.28,372.37,143.22,1565.87,LUNA,COON RAPIDS MN 55433-5856 US,45.1728923,-93.3023898,32.9451916,-97.0019719,866.3922056,-88.4077944, 0.11 ,2021,7,26,2021Q07,Second Shift,Tuesday
1733692,1,7/26/2021 23:59,00:00.0,3,3,2,3,Single Driver,36,On Time,00:00.0,WESTAMPTON NJ 8060 US,WESTAMPTON,NJ,Middle Atlantic Division,8060,US,1733692,7/23/2021 8:04,6/21/2021 17:45,7/27/2021 17:20,7/30/2021 0:00,1496.4,1646.04,643.45,0,2289.49,LUNA,WESTAMPTON NJ 8060 US,40.0192445,-74.81923825,32.9451916,-97.0019719,1323.506414,-172.893586, 0.06 ,2021,7,27,2021Q07,Second Shift,Wednesday
1733898,2,7/26/2021 23:59,00:00.0,7,4,2,5,Single Driver,6,1-2 days early,00:00.0,KENMORE WA 98028-3517 US,KENMORE,WA,Pacific Division,98028-3517,US,1733898,7/24/2021 2:41,7/22/2021 19:33,7/28/2021 16:15,8/2/2021 0:00,2112.88,2324.17,1098.7,0,3422.87,LUNA,KENMORE WA 98028-3517 US,47.7573202,-12.22440148,32.9451916,-97.0019719,4362.953437,2250.071437, 0.11 ,2021,7,28,2021Q07,Second Shift,Thursday
1733900,1,7/26/2021 23:59,00:00.0,7,2,1,4,Team driver,8,1-2 days early,00:00.0,COLORADO SPRINGS CO 80917-1363 US,COLORADO SPRINGS,CO,Mountain Division,80917-1363,US,1733900,7/25/2021 2:36,7/19/2021 19:11,7/27/2021 16:36,7/31/2021 16:36,766.9,843.59,299.09,115.04,1257.72,LUNA,COLORADO SPRINGS CO 80917-1363 US,38.8659591,-10.46929541,32.9451916,-97.0019719,4682.317919,3915.417919, 0.06 ,2021,7,27,2021Q07,Second Shift,Wednesday
1733903,1,7/26/2021 23:59,00:00.0,7,2,1,1,Team driver,5,3-5 days early,00:00.0,LAND O LAKES FL 34639-5110 US,LAND O LAKES,FL,South Atlantic Division,34639-5110,US,1733903,7/23/2021 22:30,7/22/2021 16:21,7/27/2021 15:19,7/28/2021 15:19,1012.35,1113.58,394.81,151.85,1660.25,LUNA,LAND O LAKES FL 34639-5110 US,28.2188992,-82.4575938,32.9451916,-97.0019719,924.9435148,-87.4014852, 0.06 ,2021,7,27,2021Q07,First Shift,Wednesday
1733904,1,7/26/2021 23:59,00:00.0,7,3,2,4,Team driver,11,3-5 days early,00:00.0,AMERICAN FORK UT 84003-5135 US,AMERICAN FORK,UT,Mountain Division,84003-5135,US,1733904,7/23/2021 6:19,7/16/2021 20:46,7/27/2021 0:07,7/31/2021 0:07,1245.4,1369.94,498.16,186.81,2054.91,LUNA,AMERICAN FORK UT 84003-5135 US,40.3768064,-11.17959146,32.9451916,-97.0019719,4604.43697,3359.03897, 0.06 ,2021,7,27,2021Q07,Thrid Shift,Wednesday
1733905,1,7/26/2021 23:59,00:00.0,7,2,1,1,Team driver,5,3-5 days early,00:00.0,LAWRENCE IN 46226-5218 US,LAWRENCE,IN,East North Central Division,46226-5218,US,1733905,7/23/2021 20:44,7/22/2021 19:35,7/27/2021 15:15,7/28/2021 15:15,864.73,951.2,337.24,129.71,1418.15,LUNA,LAWRENCE IN 46226-5218 US,39.8704235,-85.98829767,32.9451916,-97.0019719,776.6625555,-88.0644445, 0.06 ,2021,7,27,2021Q07,First Shift,Wednesday
1733908,1,7/26/2021 23:59,00:00.0,7,5,3,4,Team driver,8,1-2 days early,00:00.0,BERKELEY CA 94704-1208 US,BERKELEY,CA,Pacific Division,94704-1208,US,1733908,7/25/2021 4:47,7/19/2021 19:16,7/27/2021 16:44,7/31/2021 16:44,2743.86,3018.24,1646.31,411.58,5076.14,LUNA,BERKELEY CA 94704-1208 US,37.8708393,-12.2272863,32.9451916,-97.0019719,4624.538196,1880.681196, 0.06 ,2021,7,27,2021Q07,Second Shift,Wednesday
1734205,1,7/27/2021 23:59,00:00.0,6,1,1,2,Single Driver,127,3-5 days early,00:00.0,KANSAS CITY MO 64112 US,KANSAS CITY,MO,West North Central Division,64112,US,1734205,7/25/2021 17:22,3/23/2021 17:16,7/28/2021 15:04,7/30/2021 0:00,533,586.3,207.87,0,794.17,LUNA,KANSAS CITY MO 64112 US,39.092322,-94.54704194,32.9451916,-97.0019719,445.5211994,-87.4788006, 0.06 ,2021,7,28,2021Q07,First Shift,Thursday
1738983,1,8/5/2021 23:59,00:00.0,4,2,1,3,Single Driver,2,1-2 days early,00:00.0,COON RAPIDS MN 55433-5856 US,COON RAPIDS,MN,West North Central Division,55433-5856,US,1738983,8/5/2021 2:07,8/4/2021 15:52,8/6/2021 14:47,8/9/2021 0:00,954.8,1050.28,372.37,0,1422.65,LUNA,COON RAPIDS MN 55433-5856 US,45.1728923,-93.3023898,32.9451916,-97.0019719,866.3922056,-88.4077944, 0.06 ,2021,8,6,2021Q08,First Shift,Weekend
1740324,1,8/9/2021 23:59,00:00.0,2,2,1,2,Single Driver,3,1-2 days early,00:00.0,ELK GROVE VILLAGE IL 60007-6604 US,ELK GROVE VILLAGE,IL,East North Central Division,60007-6604,US,1740324,8/7/2021 22:21,8/6/2021 22:21,8/9/2021 21:21,8/11/2021 0:00,923.6,1015.96,360.2,0,1376.16,LUNA,ELK GROVE VILLAGE IL 60007-6604 US,42.0041236,-87.9706457,32.9451916,-97.0019719,796.9307896,-126.6692104, 0.06 ,2021,8,9,2021Q08,Second Shift,Tuesday
1740356,1,8/9/2021 23:59,00:00.0,3,4,2,4,Team driver,6,1-2 Days late,00:00.0,PORTLAND OR 97219 US,PORTLAND,OR,Pacific Division,97219,US,1740356,8/5/2021 3:11,8/4/2021 3:11,8/9/2021 19:53,8/13/2021 19:53,2041,2245.1,1040.91,306.15,3592.16,LUNA,PORTLAND OR 97219 US,45.5202471,-12.26741949,32.9451916,-97.0019719,4416.069118,2375.069118, 0.06 ,2021,8,9,2021Q08,Second Shift,Tuesday
1740379,1,8/9/2021 23:59,00:00.0,7,2,1,2,Single Driver,6,> 5 days early,00:00.0,LONDON KY 40741-7287 US,LONDON,KY,East South Central Division,40741-7287,US,1740379,8/8/2021 16:15,8/4/2021 15:44,8/9/2021 20:29,8/11/2021 0:00,874.1,961.51,340.9,0,1302.41,LUNA,LONDON KY 40741-7287 US,37.1289771,-84.0832646,32.9451916,-97.0019719,786.3515621,-87.7484379, 0.06 ,2021,8,9,2021Q08,Second Shift,Tuesday
1742930,1,8/13/2021 23:59,00:00.0,4,3,2,4,Team driver,6,On Time,00:00.0,BOISE ID 83706 US,BOISE,ID,Mountain Division,83706,US,1742930,8/9/2021 9:32,8/8/2021 9:32,8/13/2021 19:10,8/17/2021 19:10,1610.5,1771.55,724.73,241.58,2737.85,LUNA,BOISE ID 83706 US,43.60081625,-11.62421101,32.9451916,-97.0019719,4495.122,2884.622, 0.06 ,2021,8,13,2021Q08,Second Shift,Weekend
1742988,2,8/13/2021 23:59,00:00.0,3,1,1,3,Single Driver,2,1-2 days early,00:00.0,SPRINGFIELD MO 65803-9565 US,SPRINGFIELD,MO,West North Central Division,65803-9565,US,1742988,8/12/2021 13:30,8/12/2021 8:13,8/13/2021 22:03,8/16/2021 0:00,414.2,455.62,161.54,0,617.16,LUNA,SPRINGFIELD MO 65803-9565 US,37.2166779,-93.2920373,32.9451916,-97.0019719,361.7312921,-52.4687079, 0.11 ,2021,8,13,2021Q08,Thrid Shift,Weekend
1742996,1,8/13/2021 23:59,00:00.0,5,4,2,4,Team driver,5,1-2 Days late,00:00.0,WEST SACRAMENTO CA 95691-5747 US,WEST SACRAMENTO,CA,Pacific Division,95691-5747,US,1742996,8/12/2021 15:23,8/11/2021 18:05,8/16/2021 14:12,8/20/2021 14:12,1713.7,1885.07,788.3,257.06,2930.43,LUNA,WEST SACRAMENTO CA 95691-5747 US,38.5804609,-12.1530234,32.9451916,-97.0019719,4607.92,2894.22, 0.06 ,2021,8,16,2021Q08,First Shift,Tuesday
1745296,1,8/19/2021 23:59,00:00.0,4,3,2,4,Single Driver,6,1-2 days early,00:00.0,HYATTSVILLE MD 20783 US,HYATTSVILLE,MD,South Atlantic Division,20783,US,1745296,8/14/2021 22:16,8/13/2021 22:16,8/19/2021 17:56,8/23/2021 0:00,1358.56,1494.41,570.59,0,2065.01,LUNA,HYATTSVILLE MD 20783 US,38.9529442,-76.9408647,32.9451916,-97.0019719,1195.377413,-163.178587, 0.06 ,2021,8,19,2021Q08,Second Shift,Friday
1745302,1,8/19/2021 23:59,00:00.0,4,3,2,4,Single Driver,8,1-2 days early,00:00.0,CLEVELAND OH 44103-4905 US,CLEVELAND,OH,East North Central Division,44103-4905,US,1745302,8/18/2021 20:05,8/12/2021 13:32,8/19/2021 23:20,8/23/2021 0:00,1392.52,1531.77,584.86,0,2116.63,LUNA,CLEVELAND OH 44103-4905 US,41.49843785,-81.66835362,32.9451916,-97.0019719,1028.486866,-364.033134, 0.06 ,2021,8,19,2021Q08,Thrid Shift,Friday
1746012,1,8/20/2021 23:59,00:00.0,5,4,2,4,Team driver,3,1-2 days early,00:00.0,WEST SACRAMENTO CA 95691-5747 US,WEST SACRAMENTO,CA,Pacific Division,95691-5747,US,1746012,8/18/2021 16:53,8/18/2021 13:17,8/20/2021 19:55,8/24/2021 19:55,1713.7,1885.07,788.3,257.06,2930.43,LUNA,WEST SACRAMENTO CA 95691-5747 US,38.5804609,-12.1530234,32.9451916,-97.0019719,4607.92,2894.22, 0.06 ,2021,8,20,2021Q08,Second Shift,Weekend
1746048,1,8/20/2021 23:59,00:00.0,7,3,2,3,Single Driver,5,3-5 days early,00:00.0,GLEN BURNIE MD 21061-2841 US,GLEN BURNIE,MD,South Atlantic Division,21061-2841,US,1746048,8/17/2021 7:09,8/16/2021 15:54,8/20/2021 20:03,8/23/2021 0:00,1379.5,1517.45,579.39,0,2096.84,LUNA,GLEN BURNIE MD 21061-2841 US,39.1626298,-76.6250756,32.9451916,-97.0019719,1215.392918,-164.107082, 0.06 ,2021,8,20,2021Q08,Second Shift,Weekend
1746800,2,8/23/2021 23:59,00:00.0,2,4,2,2,Team driver,6,On Time,00:00.0,TAUNTON MA 02780-7364 US,TAUNTON,MA,New England Division,02780-7364,US,1746800,8/20/2021 16:26,8/18/2021 13:08,8/23/2021 16:25,8/25/2021 16:25,1756,1931.6,825.32,263.4,3020.32,LUNA,TAUNTON MA 02780-7364 US,41.8946107,-71.11113,32.9451916,-97.0019719,1544.236873,-211.763127, 0.11 ,2021,8,23,2021Q08,Second Shift,Tuesday
1747441,1,8/24/2021 23:59,00:00.0,3,3,1,2,Single Driver,6,1-2 days early,00:00.0,ROANOKE VA 24012 US,ROANOKE,VA,South Atlantic Division,24012,US,1747441,8/22/2021 22:34,8/19/2021 13:54,8/24/2021 18:11,8/26/2021 0:00,1112.2,1223.42,433.76,0,1657.18,LUNA,ROANOKE VA 24012 US,37.273187,-79.9414252,32.9451916,-97.0019719,1009.776331,-102.423669, 0.06 ,2021,8,24,2021Q08,Second Shift,Wednesday
1749526,1,8/27/2021 23:59,00:00.0,4,2,1,3,Single Driver,5,1-2 days early,00:00.0,DES MOINES IA 50321-1250 US,DES MOINES,IA,West North Central Division,50321-1250,US,1749526,8/24/2021 9:19,8/23/2021 9:19,8/27/2021 17:24,8/30/2021 0:00,695,764.5,271.05,0,1035.55,LUNA,DES MOINES IA 50321-1250 US,41.5910323,-93.6046655,32.9451916,-97.0019719,624.7929777,-70.2070223, 0.06 ,2021,8,27,2021Q08,Second Shift,Weekend
1749557,2,8/27/2021 23:59,00:00.0,5,2,1,3,Single Driver,9,3-5 days early,00:00.0,MARSHALL WI 53559 US,MARSHALL,WI,East North Central Division,53559,US,1749557,8/25/2021 8:38,8/19/2021 13:09,8/27/2021 22:33,8/30/2021 0:00,986.9,1085.59,384.89,0,1470.48,LUNA,MARSHALL WI 53559 US,43.1683286,-89.0667775,32.9451916,-97.0019719,826.380382,-160.519618, 0.11 ,2021,8,27,2021Q08,Thrid Shift,Weekend
1749558,2,8/27/2021 23:59,00:00.0,3,2,1,3,Single Driver,5,1-2 days early,00:00.0,BENSENVILLE IL 60106 US,BENSENVILLE,IL,East North Central Division,60106,US,1749558,8/23/2021 23:48,8/22/2021 23:48,8/27/2021 23:24,8/30/2021 0:00,925.8,1018.38,361.06,0,1379.44,LUNA,BENSENVILLE IL 60106 US,41.9538384,-87.9431781,32.9451916,-97.0019719,795.2654749,-130.5345251, 0.11 ,2021,8,27,2021Q08,Thrid Shift,Weekend
1749560,1,8/27/2021 23:59,00:00.0,3,2,1,3,Single Driver,2,1-2 days early,00:00.0,MARSHALL WI 53559 US,MARSHALL,WI,East North Central Division,53559,US,1749560,8/27/2021 17:24,8/26/2021 14:24,8/27/2021 18:08,8/30/2021 0:00,986.9,1085.59,384.89,0,1470.48,LUNA,MARSHALL WI 53559 US,43.1683286,-89.0667775,32.9451916,-97.0019719,826.380382,-160.519618, 0.06 ,2021,8,27,2021Q08,Second Shift,Weekend
1750119,2,8/27/2021 23:59,00:00.0,3,2,1,3,Single Driver,4,1-2 days early,00:00.0,ALPHARETTA GA 30005 US,ALPHARETTA,GA,South Atlantic Division,30005,US,1750119,8/25/2021 5:23,8/24/2021 5:23,8/27/2021 23:53,8/30/2021 0:00,830.6,913.66,323.93,0,1237.59,LUNA,ALPHARETTA GA 30005 US,34.0709576,-84.2747329,32.9451916,-97.0019719,738.3929407,-92.2070593, 0.11 ,2021,8,27,2021Q08,Thrid Shift,Weekend
1751542,1,8/31/2021 23:59,00:00.0,2,2,1,2,Single Driver,4,1-2 days early,00:00.0,JACKSONVILLE FL 32224 US,JACKSONVILLE,FL,South Atlantic Division,32224,US,1751542,8/28/2021 22:44,8/27/2021 22:44,8/31/2021 21:03,9/2/2021 0:00,1015.7,1117.27,396.12,0,1513.39,LUNA,JACKSONVILLE FL 32224 US,30.2881224,-81.4555038,32.9451916,-97.0019719,933.7616179,-81.9383821, 0.06 ,2021,8,31,2021Q08,Second Shift,Wednesday
1751729,1,9/1/2021 23:59,00:00.0,2,2,1,2,Single Driver,2,1-2 days early,00:00.0,BLAINE MN 55449 US,BLAINE,MN,West North Central Division,55449,US,1751729,8/31/2021 15:41,8/30/2021 21:28,9/1/2021 17:58,9/3/2021 0:00,955.6,1051.16,372.68,0,1423.84,LUNA,BLAINE MN 55449 US,45.2045893,-93.1887597,32.9451916,-97.0019719,869.9149787,-85.6850213, 0.06 ,2021,9,1,2021Q09,Second Shift,Thursday
1751731,1,9/1/2021 23:59,00:00.0,2,4,2,2,Team driver,5,On Time,00:00.0,TAUNTON MA 02780-7364 US,TAUNTON,MA,New England Division,02780-7364,US,1751731,8/28/2021 21:55,8/27/2021 21:55,9/1/2021 19:51,9/3/2021 19:51,1756,1931.6,825.32,263.4,3020.32,LUNA,TAUNTON MA 02780-7364 US,41.8946107,-71.11113,32.9451916,-97.0019719,1544.236873,-211.763127, 0.06 ,2021,9,1,2021Q09,Second Shift,Thursday
1754086,2,9/7/2021 23:59,00:00.0,2,2,1,1,Team driver,5,1-2 days early,00:00.0,ANOKA MN 55303 US,ANOKA,MN,West North Central Division,55303,US,1754086,9/3/2021 9:35,9/2/2021 21:16,9/7/2021 19:10,9/8/2021 19:10,961.1,1057.21,374.83,144.17,1576.2,LUNA,ANOKA MN 55303 US,45.2077506,-93.384074,32.9451916,-97.0019719,867.7396548,-93.3603452, 0.11 ,2021,9,7,2021Q09,Second Shift,Wednesday
1755064,2,9/9/2021 23:59,00:00.0,4,3,2,4,Single Driver,14,1-2 days early,00:00.0,HIALEAH FL 33013 US,HIALEAH,FL,South Atlantic Division,33013,US,1755064,9/6/2021 0:42,8/27/2021 13:57,9/9/2021 18:45,9/13/2021 0:00,1292.28,1421.51,529.83,0,1951.34,LUNA,HIALEAH FL 33013 US,25.8575963,-80.2781057,32.9451916,-97.0019719,1118.626696,-173.653304, 0.11 ,2021,9,9,2021Q09,Second Shift,Friday
1755069,1,9/9/2021 23:59,00:00.0,5,4,2,4,Single Driver,7,1-2 days early,00:00.0,NEWBURYPORT MA 01950-4043 US,NEWBURYPORT,MA,New England Division,01950-4043,US,1755069,9/8/2021 6:21,9/3/2021 17:35,9/9/2021 18:40,9/13/2021 0:00,1814,1995.4,870.72,0,2866.12,LUNA,NEWBURYPORT MA 01950-4043 US,42.8125913,-70.8772751,32.9451916,-97.0019719,1573.215902,-240.784098, 0.06 ,2021,9,9,2021Q09,Second Shift,Friday
1755541,1,9/9/2021 23:59,00:00.0,4,2,1,1,Team driver,7,3-5 days early,00:00.0,FRANKLIN PARK IL 60131-2548 US,FRANKLIN PARK,IL,East North Central Division,60131-2548,US,1755541,9/8/2021 10:13,9/3/2021 13:32,9/9/2021 14:34,9/10/2021 14:34,922.82,1015.1,359.9,138.42,1513.43,LUNA,FRANKLIN PARK IL 60131-2548 US,41.9365028,-87.8664945,32.9451916,-97.0019719,797.0025731,-125.8194269, 0.06 ,2021,9,9,2021Q09,First Shift,Friday
1755542,1,9/9/2021 23:59,00:00.0,5,3,2,3,Single Driver,37,3-5 days early,00:00.0,BUDD LAKE NJ 07828-4317 US,BUDD LAKE,NJ,Middle Atlantic Division,07828-4317,US,1755542,9/7/2021 9:38,8/4/2021 15:43,9/9/2021 21:20,9/12/2021 0:00,1529.1,1682.01,672.8,0,2354.81,LUNA,BUDD LAKE NJ 07828-4317 US,40.87389,-74.73827738,32.9451916,-97.0019719,1343.627549,-185.472451, 0.06 ,2021,9,9,2021Q09,Second Shift,Friday
1755546,1,9/9/2021 23:59,00:00.0,4,2,1,1,Team driver,4,3-5 days early,00:00.0,ALPHARETTA GA 30005 US,ALPHARETTA,GA,South Atlantic Division,30005,US,1755546,9/7/2021 10:11,9/6/2021 10:11,9/9/2021 21:12,9/10/2021 21:12,830.6,913.66,323.93,124.59,1362.18,LUNA,ALPHARETTA GA 30005 US,34.0709576,-84.2747329,32.9451916,-97.0019719,738.3929407,-92.2070593, 0.06 ,2021,9,9,2021Q09,Second Shift,Friday
1756028,1,9/10/2021 23:59,00:00.0,4,3,2,4,Team driver,2,On Time,00:00.0,BOISE ID 83706-1433 US,BOISE,ID,Mountain Division,83706-1433,US,1756028,9/9/2021 16:46,9/9/2021 8:28,9/10/2021 22:02,9/14/2021 22:02,1610.5,1771.55,724.73,241.58,2737.85,LUNA,BOISE ID 83706-1433 US,43.60081625,-11.62421101,32.9451916,-97.0019719,4495.122,2884.622, 0.06 ,2021,9,10,2021Q09,Thrid Shift,Weekend
1759121,1,9/17/2021 23:59,00:00.0,3,4,2,3,Single Driver,5,1-2 days early,00:00.0,CENTRAL FALLS RI 02863-3012 US,CENTRAL FALLS,RI,New England Division,02863-3012,US,1759121,9/13/2021 16:45,9/12/2021 16:45,9/17/2021 16:31,9/20/2021 0:00,1799,1978.9,845.53,0,2824.43,LUNA,CENTRAL FALLS RI 02863-3012 US,41.8906553,-71.3922785,32.9451916,-97.0019719,1530.17638,-268.82362, 0.06 ,2021,9,17,2021Q09,Second Shift,Weekend
1759122,1,9/17/2021 23:59,00:00.0,3,2,1,4,Team driver,5,1-2 Days late,00:00.0,DENVER CO 80231-4911 US,DENVER,CO,Mountain Division,80231-4911,US,1759122,9/14/2021 11:45,9/13/2021 11:45,9/17/2021 15:34,9/21/2021 15:34,776.7,854.37,302.91,116.51,1273.79,LUNA,DENVER CO 80231-4911 US,39.7392364,-10.49848623,32.9451916,-97.0019719,4655.51606,3878.81606, 0.06 ,2021,9,17,2021Q09,First Shift,Weekend
1759123,1,9/17/2021 23:59,00:00.0,3,2,1,3,Single Driver,5,1-2 days early,00:00.0,ATLANTA GA 30328-4003 US,ATLANTA,GA,South Atlantic Division,30328-4003,US,1759123,9/14/2021 3:30,9/13/2021 3:30,9/17/2021 19:06,9/20/2021 0:00,802,882.2,312.78,0,1194.98,LUNA,ATLANTA GA 30328-4003 US,33.7668455,-84.41744175,32.9451916,-97.0019719,729.5665142,-72.4334858, 0.06 ,2021,9,17,2021Q09,Second Shift,Weekend
1768669,1,10/6/2021 23:59,00:00.0,2,2,1,2,Single Driver,5,1-2 days early,00:00.0,MARSHALL WI 53559 US,MARSHALL,WI,East North Central Division,53559,US,1768669,10/3/2021 19:52,10/2/2021 19:52,10/6/2021 21:12,10/8/2021 0:00,986.9,1085.59,384.89,0,1470.48,LUNA,MARSHALL WI 53559 US,43.1683286,-89.0667775,32.9451916,-97.0019719,826.380382,-160.519618, 0.06 ,2021,10,6,2021Q10,Second Shift,Thursday
1768672,1,10/6/2021 23:59,00:00.0,2,2,1,1,Team driver,6,1-2 days early,00:00.0,COAL CITY IL 60416-9537 US,COAL CITY,IL,East North Central Division,60416-9537,US,1768672,10/2/2021 3:46,10/1/2021 3:46,10/6/2021 21:14,10/7/2021 21:14,877.3,965.03,342.15,131.6,1438.77,LUNA,COAL CITY IL 60416-9537 US,41.2878097,-88.2856185,32.9451916,-97.0019719,749.2703656,-128.0296344, 0.06 ,2021,10,6,2021Q10,Second Shift,Thursday
1775728,1,10/21/2021 23:59,00:00.0,4,1,1,1,Team driver,3,3-5 days early,00:00.0,WICHITA KS 67211-3378 US,WICHITA,KS,West North Central Division,67211-3378,US,1775728,10/19/2021 16:19,10/19/2021 13:13,10/21/2021 21:03,10/22/2021 21:03,344.9,400,134.51,51.74,586.25,LUNA,WICHITA KS 67211-3378 US,37.6922361,-97.3375448,32.9451916,-97.0019719,327.8047538,-17.0952462, 0.06 ,2021,10,21,2021Q10,Second Shift,Friday
1780706,1,10/29/2021 23:59,00:00.0,5,3,2,3,Single Driver,2,3-5 days early,00:00.0,MEDIA PA 19063-3225 US,MEDIA,PA,Middle Atlantic Division,19063-3225,US,1780706,10/28/2021 13:11,10/28/2021 8:44,10/29/2021 21:06,11/1/2021 0:00,1464.2,1610.62,629.61,0,2240.23,LUNA,MEDIA PA 19063-3225 US,39.9167783,-75.387693,32.9451916,-97.0019719,1292.525248,-171.674752, 0.06 ,2021,10,29,2021Q10,Second Shift,Weekend
1781940,2,11/2/2021 23:59,00:00.0,2,1,1,1,Team driver,13,1-2 days early,00:00.0,SPRINGFIELD MO 65803 US,SPRINGFIELD,MO,West North Central Division,65803,US,1781940,10/30/2021 3:53,10/21/2021 12:50,11/2/2021 18:40,11/3/2021 18:40,414.2,455.62,161.54,62.13,679.29,LUNA,SPRINGFIELD MO 65803 US,37.2166779,-93.2920373,32.9451916,-97.0019719,361.7312921,-52.4687079, 0.11 ,2021,11,2,2021Q11,Second Shift,Wednesday
1782020,2,11/2/2021 23:59,00:00.0,2,2,1,1,Team driver,20,1-2 days early,00:00.0,SAINT LOUIS MO 63123 US,SAINT LOUIS,MO,West North Central Division,63123,US,1782020,11/1/2021 4:41,10/14/2021 14:29,11/2/2021 18:37,11/3/2021 18:37,619,680.9,241.41,92.85,1015.16,LUNA,SAINT LOUIS MO 63123 US,38.6233721,-90.2045184,32.9451916,-97.0019719,546.5440302,-72.4559698, 0.11 ,2021,11,2,2021Q11,Second Shift,Wednesday
1783464,1,11/4/2021 23:59,00:00.0,4,2,1,1,Team driver,4,3-5 days early,00:00.0,AUSTELL GA 30168-3520 US,AUSTELL,GA,South Atlantic Division,30168-3520,US,1783464,11/1/2021 13:48,11/1/2021 4:10,11/4/2021 19:16,11/5/2021 19:16,793.1,872.41,309.31,118.97,1300.68,LUNA,AUSTELL GA 30168-3520 US,33.818849,-84.63897154,32.9451916,-97.0019719,716.894784,-76.205216, 0.06 ,2021,11,4,2021Q11,Second Shift,Friday
1785782,2,11/8/2021 23:59,00:00.0,3,4,2,4,Team driver,8,1-2 Days late,00:00.0,HAYWARD CA 94545 US,HAYWARD,CA,Pacific Division,94545,US,1785782,11/5/2021 4:35,11/2/2021 15:37,11/9/2021 21:57,11/13/2021 21:57,1693.4,1862.74,778.96,254.01,2895.71,LUNA,HAYWARD CA 94545 US,37.65319915,-12.21051859,32.9451916,-97.0019719,4631.636095,2938.236095, 0.11 ,2021,11,9,2021Q11,Second Shift,Wednesday
1787069,1,11/11/2021 23:59,00:00.0,4,3,2,4,Single Driver,3,1-2 days early,00:00.0,EAST SYRACUSE NY 13057-9653 US,EAST SYRACUSE,NY,Middle Atlantic Division,13057-9653,US,1787069,11/9/2021 15:19,11/9/2021 1:30,11/11/2021 22:09,11/15/2021 0:00,1535.2,1688.72,675.49,0,2364.21,LUNA,EAST SYRACUSE NY 13057-9653 US,43.0653446,-76.0785332,32.9451916,-97.0019719,1332.607849,-202.592151, 0.06 ,2021,11,11,2021Q11,Thrid Shift,Friday
1787735,1,11/12/2021 23:59,00:00.0,3,2,1,3,Single Driver,3,1-2 days early,00:00.0,ALPHARETTA GA 30005 US,ALPHARETTA,GA,South Atlantic Division,30005,US,1787735,11/11/2021 14:03,11/10/2021 16:52,11/12/2021 21:00,11/15/2021 0:00,830.6,913.66,323.93,0,1237.59,LUNA,ALPHARETTA GA 30005 US,34.0709576,-84.2747329,32.9451916,-97.0019719,738.3929407,-92.2070593, 0.06 ,2021,11,12,2021Q11,Second Shift,Weekend
1802391,1,12/14/2021 23:59,00:00.0,3,1,1,1,Team driver,6,1-2 days early,00:00.0,KILLEEN TX 76541 US,KILLEEN,TX,West South Central Division,76541,US,1802391,12/9/2021 21:57,12/8/2021 21:57,12/14/2021 20:38,12/15/2021 20:38,177,324.07,69.03,26.55,419.65,LUNA,KILLEEN TX 76541 US,31.1171441,-97.727796,32.9451916,-97.0019719,132.9650005,-44.0349995, 0.06 ,2021,12,14,2021Q12,Second Shift,Wednesday
1817424,2,1/21/2022 23:59,00:00.0,4,1,1,3,Single Driver,3,1-2 days early,00:00.0,SPRINGFIELD MO 65803-9565 US,SPRINGFIELD,MO,West North Central Division,65803-9565,US,1817424,1/19/2022 17:04,1/19/2022 10:51,1/21/2022 16:22,1/24/2022 0:00,414.2,455.62,161.54,0,617.16,LUNA,SPRINGFIELD MO 65803-9565 US,37.2166779,-93.2920373,32.9451916,-97.0019719,361.7312921,-52.4687079, 0.11 ,2022,1,21,2022Q01,Second Shift,Weekend
2266348,8,1/27/2021 23:59,00:00.0,7,2,1,5,Single Driver,20,3-5 days early,00:00.0,WATERTOWN WI 53098 US,WATERTOWN,WI,East North Central Division,53098,US,2266348,1/24/2021 1:57,1/8/2021 20:36,1/27/2021 23:19,2/1/2021 0:00,996,1195.2,388.44,0,1583.64,FRONTIER,WATERTOWN WI 53098 US,43.1948481,-88.7286352,32.9451916,-97.0019719,837.5939929,-158.4060071, 0.44 ,2021,1,27,2021Q01,Thrid Shift,Thursday
2267781,2,2/1/2021 23:59,00:00.0,4,1,1,3,Single Driver,12,1-2 days early,00:00.0,MAGNOLIA TX 77355 US,MAGNOLIA,TX,West South Central Division,77355,US,2267781,1/31/2021 9:43,1/21/2021 21:27,2/2/2021 4:29,2/5/2021 0:00,264.3,550,103.08,0,653.08,FRONTIER,MAGNOLIA TX 77355 US,30.2093794,-95.7507815,32.9451916,-97.0019719,202.4168861,-61.8831139, 0.11 ,2021,2,2,2021Q02,Thrid Shift,Wednesday
2267808,4,2/1/2021 23:59,00:00.0,7,3,1,3,Single Driver,6,3-5 days early,00:00.0,WEST COLUMBIA SC 29170-2173 US,WEST COLUMBIA,SC,South Atlantic Division,29170-2173,US,2267808,1/31/2021 2:01,1/27/2021 19:46,2/2/2021 4:27,2/5/2021 0:00,1128,1410,439.92,0,1849.92,FRONTIER,WEST COLUMBIA SC 29170-2173 US,33.9934867,-81.0739826,32.9451916,-97.0019719,921.8963806,-206.1036194, 0.22 ,2021,2,2,2021Q02,Thrid Shift,Wednesday
2267810,1,2/1/2021 23:59,00:00.0,4,1,1,2,Single Driver,5,1-2 days early,00:00.0,HOUSTON TX 77073-5120 US,HOUSTON,TX,West South Central Division,77073-5120,US,2267810,1/28/2021 19:21,1/28/2021 4:48,2/2/2021 4:23,2/4/2021 0:00,253,550,98.67,0,648.67,FRONTIER,HOUSTON TX 77073-5120 US,29.7589382,-95.3676974,32.9451916,-97.0019719,239.8308826,-13.1691174, 0.06 ,2021,2,2,2021Q02,Thrid Shift,Wednesday
2268689,3,2/3/2021 23:59,00:00.0,6,4,2,8,Single Driver,5,1-2 Days late,00:00.0,PORTLAND OR 97219-6872 US,PORTLAND,OR,Pacific Division,97219-6872,US,2268689,1/30/2021 16:12,1/29/2021 16:12,2/3/2021 0:51,2/11/2021 0:00,2112,3421.44,1098.24,0,4519.68,FRONTIER,PORTLAND OR 97219-6872 US,45.5202471,-12.26741949,32.9451916,-97.0019719,4416.069118,2304.069118, 0.17 ,2021,2,3,2021Q02,Thrid Shift,Thursday
2269386,1,2/3/2021 23:59,00:00.0,7,3,2,4,Single Driver,9,3-5 days early,00:00.0,BUFFALO NY 14207-3027 US,BUFFALO,NY,Middle Atlantic Division,14207-3027,US,2269386,2/2/2021 18:02,1/27/2021 1:35,2/4/2021 16:46,2/8/2021 0:00,1390.3,2488.64,583.93,0,3072.56,FRONTIER,BUFFALO NY 14207-3027 US,42.8867166,-78.8783922,32.9451916,-97.0019719,1200.275878,-190.024122, 0.06 ,2021,2,4,2021Q02,Second Shift,Friday
2269388,4,2/3/2021 23:59,00:00.0,7,3,2,4,Single Driver,3,3-5 days early,00:00.0,POUGHKEEPSIE NY 12603 US,POUGHKEEPSIE,NY,Middle Atlantic Division,12603,US,2269388,2/3/2021 9:33,2/1/2021 20:52,2/4/2021 16:43,2/8/2021 0:00,1625.1,2908.93,731.3,0,3640.22,FRONTIER,POUGHKEEPSIE NY 12603 US,41.7065539,-73.9283672,32.9451916,-97.0019719,1401.082566,-224.017434, 0.22 ,2021,2,4,2021Q02,Second Shift,Friday
2269399,18,2/3/2021 23:59,00:00.0,7,3,2,2,Team driver,6,3-5 days early,00:00.0,WESTAMPTON NJ 8060 US,WESTAMPTON,NJ,Middle Atlantic Division,8060,US,2269399,2/2/2021 11:48,1/29/2021 21:40,2/4/2021 2:42,2/6/2021 2:42,1496.4,2813.23,643.45,224.46,3681.14,FRONTIER,WESTAMPTON NJ 8060 US,40.0192445,-74.81923825,32.9451916,-97.0019719,1323.506414,-172.893586, 1.00 ,2021,2,4,2021Q02,Thrid Shift,Friday
2270752,4,2/8/2021 23:59,00:00.0,7,2,1,2,Single Driver,12,> 5 days early,00:00.0,COLUMBIA SC 29209 US,COLUMBIA,SC,South Atlantic Division,29209,US,2270752,2/6/2021 4:18,1/28/2021 19:23,2/8/2021 22:09,2/10/2021 0:00,1022,1277.5,398.58,0,1676.08,FRONTIER,COLUMBIA SC 29209 US,34.0007493,-81.0343313,32.9451916,-97.0019719,924.1731136,-97.8268864, 0.22 ,2021,2,8,2021Q02,Thrid Shift,Tuesday
2270763,2,2/8/2021 23:59,00:00.0,4,4,2,4,Team driver,7,On Time,00:00.0,PORTLAND OR 97219-6872 US,PORTLAND,OR,Pacific Division,97219-6872,US,2270763,2/5/2021 6:05,2/2/2021 3:30,2/8/2021 22:08,2/12/2021 22:08,2112,3421.44,1098.24,316.8,4836.48,FRONTIER,PORTLAND OR 97219-6872 US,45.5202471,-12.26741949,32.9451916,-97.0019719,4416.069118,2304.069118, 0.11 ,2021,2,8,2021Q02,Thrid Shift,Tuesday
2271057,1,2/9/2021 23:59,00:00.0,7,4,2,7,Single Driver,6,1-2 days early,00:00.0,PORTLAND OR 97219 US,PORTLAND,OR,Pacific Division,97219,US,2271057,2/5/2021 4:14,2/4/2021 4:14,2/9/2021 21:23,2/16/2021 0:00,2112,3421.44,1098.24,0,4519.68,FRONTIER,PORTLAND OR 97219 US,45.5202471,-12.26741949,32.9451916,-97.0019719,4416.069118,2304.069118, 0.06 ,2021,2,9,2021Q02,Second Shift,Wednesday
2271060,3,2/9/2021 23:59,00:00.0,3,4,2,4,Team driver,6,1-2 Days late,00:00.0,TUKWILA WA 98188-4638 US,TUKWILA,WA,Pacific Division,98188-4638,US,2271060,2/5/2021 12:28,2/4/2021 12:28,2/9/2021 21:33,2/13/2021 21:33,2108.9,3374.24,1096.63,316.34,4787.2,FRONTIER,TUKWILA WA 98188-4638 US,47.4627356,-12.22559156,32.9451916,-97.0019719,4370.001802,2261.101802, 0.17 ,2021,2,9,2021Q02,Second Shift,Wednesday
2274285,4,2/19/2021 23:59,00:00.0,7,2,1,5,Single Driver,6,3-5 days early,00:00.0,MARSHALL WI 53559 US,MARSHALL,WI,East North Central Division,53559,US,2274285,2/15/2021 16:53,2/14/2021 16:53,2/19/2021 21:12,2/24/2021 0:00,987,1184.4,384.93,0,1569.33,FRONTIER,MARSHALL WI 53559 US,43.1683286,-89.0667775,32.9451916,-97.0019719,826.380382,-160.619618, 0.22 ,2021,2,19,2021Q02,Second Shift,Weekend
2274916,20,2/22/2021 23:59,00:00.0,7,16,8,3,Single Driver,13,3-5 days early,00:00.0,BOSSIER CITY LA 71111 US,BOSSIER CITY,LA,West South Central Division,71111,US,2274916,2/19/2021 14:55,2/10/2021 19:36,2/22/2021 21:44,2/25/2021 0:00,8463.2,14387.44,11509.95,0,25897.39,FRONTIER,BOSSIER CITY LA 71111 US,32.5369356,-93.6952689,32.9451916,-97.0019719,194.6117437,-8268.588256, 1.00 ,2021,2,22,2021Q02,Second Shift,Tuesday
2274920,1,2/22/2021 23:59,00:00.0,4,1,1,4,Single Driver,12,1-2 days early,00:00.0,MAGNOLIA TX 77355 US,MAGNOLIA,TX,West South Central Division,77355,US,2274920,2/19/2021 0:45,2/11/2021 17:21,2/22/2021 20:27,2/26/2021 0:00,264.3,550,103.08,0,653.08,FRONTIER,MAGNOLIA TX 77355 US,30.2093794,-95.7507815,32.9451916,-97.0019719,202.4168861,-61.8831139, 0.06 ,2021,2,22,2021Q02,Second Shift,Tuesday
2276083,9,2/23/2021 23:59,00:00.0,3,4,2,4,Team driver,7,1-2 Days late,00:00.0,PORTLAND OR 97219-6872 US,PORTLAND,OR,Pacific Division,97219-6872,US,2276083,2/23/2021 6:04,2/18/2021 18:52,2/25/2021 1:20,3/1/2021 1:20,2112,3421.44,1098.24,316.8,4836.48,FRONTIER,PORTLAND OR 97219-6872 US,45.5202471,-12.26741949,32.9451916,-97.0019719,4416.069118,2304.069118, 0.50 ,2021,2,25,2021Q02,Thrid Shift,Friday
2276089,4,2/23/2021 23:59,00:00.0,6,8,4,6,Single Driver,7,On Time,00:00.0,BOISE ID 83706-1433 US,BOISE,ID,Mountain Division,83706-1433,US,2276089,2/20/2021 14:40,2/18/2021 18:59,2/24/2021 19:44,3/2/2021 0:00,4283.1,7923.74,3469.31,0,11393.05,FRONTIER,BOISE ID 83706-1433 US,43.60081625,-11.62421101,32.9451916,-97.0019719,4495.122,212.022, 0.22 ,2021,2,24,2021Q02,Second Shift,Thursday
2278290,2,3/1/2021 23:59,00:00.0,4,1,1,2,Single Driver,16,1-2 days early,00:00.0,HOUSTON TX 77055 US,HOUSTON,TX,West South Central Division,77055,US,2278290,3/3/2021 22:17,2/16/2021 19:33,3/3/2021 22:59,3/5/2021 0:00,253,550,98.67,0,648.67,FRONTIER,HOUSTON TX 77055 US,29.7589382,-95.3676974,32.9451916,-97.0019719,239.8308826,-13.1691174, 0.11 ,2021,3,3,2021Q03,Thrid Shift,Thursday
2278291,1,3/1/2021 23:59,00:00.0,4,4,2,1,Team driver,25,3-5 days early,00:00.0,COPPELL TX 75019-7611 US,COPPELL,TX,West South Central Division,75019-7611,US,2278291,2/27/2021 11:27,2/5/2021 17:28,3/2/2021 2:14,3/3/2021 2:14,1715,2744,788.9,257.25,3790.15,FRONTIER,COPPELL TX 75019-7611 US,32.9552598,-97.0155703,32.9451916,-97.0019719,1.051490728,-1713.948509, 0.06 ,2021,3,2,2021Q03,Thrid Shift,Wednesday
2278293,14,3/1/2021 23:59,00:00.0,4,2,1,2,Single Driver,12,1-2 days early,00:00.0,AUSTELL GA 30168-3520 US,AUSTELL,GA,South Atlantic Division,30168-3520,US,2278293,2/26/2021 18:42,2/19/2021 19:50,3/3/2021 2:09,3/5/2021 0:00,793.1,1356.43,309.31,0,1665.74,FRONTIER,AUSTELL GA 30168-3520 US,33.818849,-84.63897154,32.9451916,-97.0019719,716.894784,-76.205216, 0.78 ,2021,3,3,2021Q03,Thrid Shift,Thursday
2280618,16,3/9/2021 23:59,00:00.0,6,3,2,5,Single Driver,7,1-2 days early,00:00.0,HAMILTON TOWNSHIP NJ 08611-3226 US,HAMILTON TOWNSHIP,NJ,Middle Atlantic Division,08611-3226,US,2280618,3/6/2021 8:57,3/3/2021 22:24,3/10/2021 0:57,3/15/2021 0:00,1503.8,2827.14,661.67,0,3488.82,FRONTIER,HAMILTON TOWNSHIP NJ 08611-3226 US,40.2307818,-74.7236162,32.9451916,-97.0019719,1332.145809,-171.654191, 0.89 ,2021,3,10,2021Q03,Thrid Shift,Thursday
2280623,4,3/9/2021 23:59,00:00.0,6,3,1,2,Single Driver,6,3-5 days early,00:00.0,ROANOKE VA 24012 US,ROANOKE,VA,South Atlantic Division,24012,US,2280623,3/5/2021 17:01,3/4/2021 17:01,3/9/2021 23:55,3/11/2021 0:00,1115,1561,434.85,0,1995.85,FRONTIER,ROANOKE VA 24012 US,37.273187,-79.9414252,32.9451916,-97.0019719,1009.776331,-105.223669, 0.22 ,2021,3,9,2021Q03,Thrid Shift,Wednesday
2281275,1,3/11/2021 23:59,00:00.0,5,2,1,3,Single Driver,7,1-2 days early,00:00.0,MARSHALL WI 53559 US,MARSHALL,WI,East North Central Division,53559,US,2281275,3/8/2021 0:44,3/5/2021 21:44,3/12/2021 19:22,3/15/2021 0:00,987,1184.4,384.93,0,1569.33,FRONTIER,MARSHALL WI 53559 US,43.1683286,-89.0667775,32.9451916,-97.0019719,826.380382,-160.619618, 0.06 ,2021,3,12,2021Q03,Second Shift,Weekend
2281307,4,3/11/2021 23:59,00:00.0,5,2,1,4,Single Driver,9,1-2 days early,00:00.0,COON RAPIDS MN 55433-5856 US,COON RAPIDS,MN,West North Central Division,55433-5856,US,2281307,3/7/2021 13:09,3/3/2021 21:08,3/11/2021 22:35,3/15/2021 0:00,960,1440,374.4,0,1814.4,FRONTIER,COON RAPIDS MN 55433-5856 US,45.1728923,-93.3023898,32.9451916,-97.0019719,866.3922056,-93.6077944, 0.22 ,2021,3,11,2021Q03,Thrid Shift,Friday
2282548,3,3/16/2021 23:59,00:00.0,3,2,1,2,Single Driver,4,1-2 days early,00:00.0,COLUMBIA SC 29209 US,COLUMBIA,SC,South Atlantic Division,29209,US,2282548,3/13/2021 23:10,3/12/2021 23:10,3/16/2021 20:49,3/18/2021 0:00,1022,1277.5,398.58,0,1676.08,FRONTIER,COLUMBIA SC 29209 US,34.0007493,-81.0343313,32.9451916,-97.0019719,924.1731136,-97.8268864, 0.17 ,2021,3,16,2021Q03,Second Shift,Wednesday
2284560,11,3/23/2021 23:59,00:00.0,3,3,2,9,Single Driver,14,6-9 days late,00:00.0,LAUREL MD 20707-4512 US,LAUREL,MD,South Atlantic Division,20707-4512,US,2284560,3/22/2021 13:54,3/10/2021 17:51,3/24/2021 1:19,4/2/2021 0:00,1360,2475.2,571.2,0,3046.4,FRONTIER,LAUREL MD 20707-4512 US,39.1044123,-76.8669233,32.9451916,-97.0019719,1201.808926,-158.191074, 0.61 ,2021,3,24,2021Q03,Thrid Shift,Thursday
2284982,4,3/24/2021 23:59,00:00.0,5,4,2,4,Single Driver,11,1-2 days early,00:00.0,NASHUA NH 03062-1924 US,NASHUA,NH,New England Division,03062-1924,US,2284982,3/23/2021 22:39,3/15/2021 15:09,3/25/2021 21:24,3/29/2021 0:00,1793,3191.54,842.71,0,4034.25,FRONTIER,NASHUA NH 03062-1924 US,42.7205376,-71.4799644,32.9451916,-97.0019719,1542.054939,-250.945061, 0.22 ,2021,3,25,2021Q03,Second Shift,Friday
2284997,15,3/24/2021 23:59,00:00.0,5,3,2,2,Team driver,10,1-2 days early,00:00.0,LAUREL MD 20707-4512 US,LAUREL,MD,South Atlantic Division,20707-4512,US,2284997,3/24/2021 14:14,3/16/2021 15:44,3/25/2021 17:49,3/27/2021 17:49,1360,2475.2,571.2,204,3250.4,FRONTIER,LAUREL MD 20707-4512 US,39.1044123,-76.8669233,32.9451916,-97.0019719,1201.808926,-158.191074, 0.83 ,2021,3,25,2021Q03,Second Shift,Friday
2293558,2,4/19/2021 23:59,00:00.0,4,2,1,2,Single Driver,19,3-5 days early,00:00.0,MARSHALL WI 53559 US,MARSHALL,WI,East North Central Division,53559,US,2293558,4/17/2021 3:06,3/31/2021 20:35,4/19/2021 20:10,4/21/2021 0:00,987,1184.4,384.93,0,1569.33,FRONTIER,MARSHALL WI 53559 US,43.1683286,-89.0667775,32.9451916,-97.0019719,826.380382,-160.619618, 0.11 ,2021,4,19,2021Q04,Second Shift,Tuesday
2294838,1,4/22/2021 23:59,00:00.0,4,2,1,4,Single Driver,2,1-2 days early,00:00.0,WATERTOWN WI 53098 US,WATERTOWN,WI,East North Central Division,53098,US,2294838,4/21/2021 16:01,4/21/2021 0:12,4/22/2021 20:18,4/26/2021 0:00,996,1195.2,388.44,0,1583.64,FRONTIER,WATERTOWN WI 53098 US,43.1948481,-88.7286352,32.9451916,-97.0019719,837.5939929,-158.4060071, 0.06 ,2021,4,22,2021Q04,Second Shift,Friday
2295972,18,4/27/2021 23:59,00:00.0,3,1,1,1,Team driver,20,1-2 days early,00:00.0,JACKSON MS 39202-3407 US,JACKSON,MS,East South Central Division,39202-3407,US,2295972,4/23/2021 21:47,4/8/2021 15:10,4/27/2021 21:09,4/28/2021 21:09,424,771.68,165.36,63.6,1000.64,FRONTIER,JACKSON MS 39202-3407 US,32.2990021,-90.1847691,32.9451916,-97.0019719,399.9615378,-24.0384622, 1.00 ,2021,4,27,2021Q04,Second Shift,Wednesday
2295976,17,4/27/2021 23:59,00:00.0,3,2,1,2,Single Driver,6,1-2 days early,00:00.0,CUMMING GA 30040 US,CUMMING,GA,South Atlantic Division,30040,US,2295976,4/23/2021 0:20,4/22/2021 0:20,4/27/2021 23:47,4/29/2021 0:00,838,1356.43,326.82,0,1683.25,FRONTIER,CUMMING GA 30040 US,34.2073196,-84.1401926,32.9451916,-97.0019719,746.5513979,-91.4486021, 0.94 ,2021,4,27,2021Q04,Thrid Shift,Wednesday
2298059,1,5/3/2021 23:59,00:00.0,7,4,2,7,Single Driver,4,1-2 days early,00:00.0,PORTLAND OR 97219 US,PORTLAND,OR,Pacific Division,97219,US,2298059,5/1/2021 1:15,4/30/2021 16:02,5/3/2021 19:36,5/10/2021 0:00,2112,3421.44,1098.24,0,4519.68,FRONTIER,PORTLAND OR 97219 US,45.5202471,-12.26741949,32.9451916,-97.0019719,4416.069118,2304.069118, 0.06 ,2021,5,3,2021Q05,Second Shift,Tuesday
2298295,16,5/4/2021 23:59,00:00.0,3,2,1,1,Team driver,6,1-2 days early,00:00.0,CUMMING GA 30040 US,CUMMING,GA,South Atlantic Division,30040,US,2298295,5/4/2021 5:58,4/29/2021 21:09,5/5/2021 13:59,5/6/2021 13:59,838,1356.43,326.82,125.7,1808.95,FRONTIER,CUMMING GA 30040 US,34.2073196,-84.1401926,32.9451916,-97.0019719,746.5513979,-91.4486021, 0.89 ,2021,5,5,2021Q05,First Shift,Thursday
2298530,3,5/5/2021 23:59,00:00.0,5,2,1,4,Single Driver,2,1-2 days early,00:00.0,MARSHALL WI 53559 US,MARSHALL,WI,East North Central Division,53559,US,2298530,5/5/2021 15:54,5/4/2021 20:25,5/6/2021 17:45,5/10/2021 0:00,987,1184.4,384.93,0,1569.33,FRONTIER,MARSHALL WI 53559 US,43.1683286,-89.0667775,32.9451916,-97.0019719,826.380382,-160.619618, 0.17 ,2021,5,6,2021Q05,Second Shift,Friday
2298595,2,5/5/2021 23:59,00:00.0,5,2,1,4,Single Driver,2,1-2 days early,00:00.0,BLOOMINGTON IL 61704-7724 US,BLOOMINGTON,IL,East North Central Division,61704-7724,US,2298595,5/5/2021 0:23,5/4/2021 20:00,5/6/2021 17:43,5/10/2021 0:00,901,1306.45,351.39,0,1657.84,FRONTIER,BLOOMINGTON IL 61704-7724 US,40.4797828,-88.9939147,32.9451916,-97.0019719,683.1604795,-217.8395205, 0.11 ,2021,5,6,2021Q05,Second Shift,Friday
2299201,12,5/7/2021 23:59,00:00.0,6,1,1,1,Team driver,6,1-2 days early,00:00.0,CONWAY AR 72032-4430 US,CONWAY,AR,West South Central Division,72032-4430,US,2299201,5/7/2021 0:40,5/4/2021 20:49,5/10/2021 16:17,5/11/2021 16:17,356,576.72,138.84,53.4,768.96,FRONTIER,CONWAY AR 72032-4430 US,35.0886963,-92.4421011,32.9451916,-97.0019719,300.4796485,-55.5203515, 0.67 ,2021,5,10,2021Q05,Second Shift,Tuesday
2302102,15,5/20/2021 23:59,00:00.0,5,2,1,4,Single Driver,6,1-2 days early,00:00.0,MOUNT WASHINGTON KY 40047-7309 US,MOUNT WASHINGTON,KY,East South Central Division,40047-7309,US,2302102,5/16/2021 10:17,5/15/2021 10:17,5/20/2021 20:19,5/24/2021 0:00,839,1258.5,327.21,0,1585.71,FRONTIER,MOUNT WASHINGTON KY 40047-7309 US,38.0500627,-85.5457877,32.9451916,-97.0019719,734.7459803,-104.2540197, 0.83 ,2021,5,20,2021Q05,Second Shift,Friday
2302822,1,5/24/2021 23:59,00:00.0,7,4,2,4,Team driver,4,3-5 days early,00:00.0,PORTLAND OR 97219 US,PORTLAND,OR,Pacific Division,97219,US,2302822,5/21/2021 16:04,5/21/2021 11:14,5/24/2021 20:18,5/28/2021 20:18,2112,3421.44,1098.24,316.8,4836.48,FRONTIER,PORTLAND OR 97219 US,45.5202471,-12.26741949,32.9451916,-97.0019719,4416.069118,2304.069118, 0.06 ,2021,5,24,2021Q05,Second Shift,Tuesday
2303015,14,5/26/2021 23:59,00:00.0,2,3,2,2,Team driver,6,On Time,00:00.0,HAMILTON TOWNSHIP NJ 08611-3226 US,HAMILTON TOWNSHIP,NJ,Middle Atlantic Division,08611-3226,US,2303015,5/23/2021 21:45,5/21/2021 16:58,5/26/2021 22:22,5/28/2021 22:22,1503.8,2827.14,661.67,225.57,3714.39,FRONTIER,HAMILTON TOWNSHIP NJ 08611-3226 US,40.2307818,-74.7236162,32.9451916,-97.0019719,1332.145809,-171.654191, 0.78 ,2021,5,26,2021Q05,Thrid Shift,Thursday
2304331,1,6/1/2021 23:59,00:00.0,3,4,2,4,Team driver,5,1-2 Days late,00:00.0,PORTLAND OR 97219-6872 US,PORTLAND,OR,Pacific Division,97219-6872,US,2304331,5/29/2021 21:43,5/28/2021 20:52,6/1/2021 21:27,6/5/2021 21:27,2112,3421.44,1098.24,316.8,4836.48,FRONTIER,PORTLAND OR 97219-6872 US,45.5202471,-12.26741949,32.9451916,-97.0019719,4416.069118,2304.069118, 0.06 ,2021,6,1,2021Q06,Second Shift,Wednesday
2305635,1,6/7/2021 23:59,00:00.0,3,2,1,2,Single Driver,5,1-2 days early,00:00.0,WATERTOWN WI 53098-2537 US,WATERTOWN,WI,East North Central Division,53098-2537,US,2305635,6/3/2021 18:44,6/3/2021 5:22,6/7/2021 22:20,6/9/2021 0:00,996,1195.2,388.44,0,1583.64,FRONTIER,WATERTOWN WI 53098-2537 US,43.1948481,-88.7286352,32.9451916,-97.0019719,837.5939929,-158.4060071, 0.06 ,2021,6,7,2021Q06,Thrid Shift,Tuesday
2305646,3,6/7/2021 23:59,00:00.0,3,2,1,2,Single Driver,5,1-2 days early,00:00.0,COLUMBIA SC 29203 US,COLUMBIA,SC,South Atlantic Division,29203,US,2305646,6/7/2021 13:53,6/3/2021 19:16,6/7/2021 22:47,6/9/2021 0:00,1022,1277.5,398.58,0,1676.08,FRONTIER,COLUMBIA SC 29203 US,34.0007493,-81.0343313,32.9451916,-97.0019719,924.1731136,-97.8268864, 0.17 ,2021,6,7,2021Q06,Thrid Shift,Tuesday
2306148,1,6/9/2021 23:59,00:00.0,6,4,2,6,Single Driver,6,1-2 days early,00:00.0,PORTLAND OR 97219-6872 US,PORTLAND,OR,Pacific Division,97219-6872,US,2306148,6/7/2021 0:15,6/4/2021 14:25,6/9/2021 22:49,6/15/2021 0:00,2112,3421.44,1098.24,0,4519.68,FRONTIER,PORTLAND OR 97219-6872 US,45.5202471,-12.26741949,32.9451916,-97.0019719,4416.069118,2304.069118, 0.06 ,2021,6,9,2021Q06,Thrid Shift,Thursday
2306757,4,6/11/2021 23:59,00:00.0,7,2,1,2,Single Driver,44,3-5 days early,00:00.0,LITHONIA GA 30058-4613 US,LITHONIA,GA,South Atlantic Division,30058-4613,US,2306757,6/9/2021 12:07,4/29/2021 13:26,6/12/2021 0:56,6/14/2021 0:00,829,1356.43,323.31,0,1679.74,FRONTIER,LITHONIA GA 30058-4613 US,33.7123305,-84.1051939,32.9451916,-97.0019719,747.4969934,-81.5030066, 0.22 ,2021,6,12,2021Q06,Thrid Shift,Weekend
2308844,1,6/21/2021 23:59,00:00.0,4,3,1,2,Single Driver,61,3-5 days early,00:00.0,ROANOKE VA 24012 US,ROANOKE,VA,South Atlantic Division,24012,US,2308844,6/19/2021 18:58,4/22/2021 19:16,6/21/2021 23:10,6/23/2021 0:00,1115,1561,434.85,0,1995.85,FRONTIER,ROANOKE VA 24012 US,37.3203013,-79.9364934,32.9451916,-97.0019719,1010.72762,-104.27238, 0.06 ,2021,6,21,2021Q06,Thrid Shift,Tuesday
2321707,4,8/19/2021 23:59,00:00.0,6,4,2,6,Single Driver,28,1-2 days early,00:00.0,PORTLAND OR 97220 US,PORTLAND,OR,Pacific Division,97220,US,2321707,8/18/2021 1:09,7/23/2021 17:51,8/19/2021 19:10,8/25/2021 0:00,2112,3421.44,1098.24,0,4519.68,FRONTIER,PORTLAND OR 97220 US,45.5202471,-12.26741949,32.9451916,-97.0019719,4416.069118,2304.069118, 0.22 ,2021,8,19,2021Q08,Second Shift,Friday
2324039,7,8/30/2021 23:59,00:00.0,7,2,1,2,Single Driver,7,> 5 days early,00:00.0,COLUMBIA SC 29209 US,COLUMBIA,SC,South Atlantic Division,29209,US,2324039,8/28/2021 13:00,8/24/2021 15:06,8/30/2021 23:35,9/1/2021 0:00,1022,1277.5,398.58,0,1676.08,FRONTIER,COLUMBIA SC 29209 US,34.0007493,-81.0343313,32.9451916,-97.0019719,924.1731136,-97.8268864, 0.39 ,2021,8,30,2021Q08,Thrid Shift,Tuesday
2329614,2,9/23/2021 23:59,00:00.0,4,4,2,4,Team driver,8,On Time,00:00.0,EVERETT WA 98208-3250 US,EVERETT,WA,Pacific Division,98208-3250,US,2329614,9/21/2021 23:04,9/16/2021 15:01,9/23/2021 22:30,9/27/2021 22:30,2112.88,3380.61,1098.7,316.93,4796.24,FRONTIER,EVERETT WA 98208-3250 US,47.9673056,-12.2201399,32.9451916,-97.0019719,4358.105783,2245.223783, 0.11 ,2021,9,23,2021Q09,Thrid Shift,Friday
2329662,3,9/23/2021 23:59,00:00.0,4,8,4,4,Team driver,49,On Time,00:00.0,BOISE ID 83706-1433 US,BOISE,ID,Mountain Division,83706-1433,US,2329662,9/22/2021 20:30,8/6/2021 20:32,9/23/2021 22:15,9/27/2021 22:15,4283.1,7923.74,3469.31,642.47,12035.51,FRONTIER,BOISE ID 83706-1433 US,43.60081625,-11.62421101,32.9451916,-97.0019719,4495.122,212.022, 0.17 ,2021,9,23,2021Q09,Thrid Shift,Friday
2343272,4,11/3/2021 23:59,00:00.0,7,4,2,4,Team driver,14,1-2 days early,00:00.0,SUMNER WA 98390-1634 US,SUMNER,WA,Pacific Division,98390-1634,US,2343272,11/4/2021 16:55,10/22/2021 16:10,11/4/2021 23:11,11/8/2021 23:11,2193.8,3510.08,1162.71,329.07,5001.86,FRONTIER,SUMNER WA 98390-1634 US,47.2061882,-12.22312383,32.9451916,-97.0019719,4376.331593,2182.531593, 0.22 ,2021,11,4,2021Q11,Thrid Shift,Friday
2344461,5,11/8/2021 23:59,00:00.0,3,4,2,3,Single Driver,7,1-2 days early,00:00.0,WALLINGFORD CT 06492-5931 US,WALLINGFORD,CT,New England Division,06492-5931,US,2344461,11/8/2021 4:24,11/2/2021 15:05,11/8/2021 22:23,11/11/2021 0:00,1654,2944.12,760.84,0,3704.96,FRONTIER,WALLINGFORD CT 06492-5931 US,41.461612,-72.8227503,32.9451916,-97.0019719,1450.910177,-203.089823, 0.28 ,2021,11,8,2021Q11,Thrid Shift,Tuesday
2344465,7,11/8/2021 23:59,00:00.0,3,4,2,3,Single Driver,7,1-2 days early,00:00.0,NEWBURYPORT MA 01950-4043 US,NEWBURYPORT,MA,New England Division,01950-4043,US,2344465,11/6/2021 18:36,11/2/2021 15:49,11/8/2021 22:20,11/11/2021 0:00,1812,3225.36,869.76,0,4095.12,FRONTIER,NEWBURYPORT MA 01950-4043 US,42.8125913,-70.8772751,32.9451916,-97.0019719,1573.215902,-238.784098, 0.39 ,2021,11,8,2021Q11,Thrid Shift,Tuesday
2354618,7,11/30/2021 23:59,00:00.0,6,3,2,4,Team driver,5,1-2 days early,00:00.0,CORONA CA 92881-6475 US,CORONA,CA,Pacific Division,92881-6475,US,2354618,11/27/2021 20:20,11/26/2021 20:20,11/30/2021 23:21,12/4/2021 23:21,1396.8,1801.87,586.66,209.52,2598.05,FRONTIER,CORONA CA 92881-6475 US,33.8752945,-11.75664449,32.9451916,-97.0019719,4766.830557,3370.030557, 0.39 ,2021,11,30,2021Q11,Thrid Shift,Wednesday
2354674,8,11/30/2021 23:59,00:00.0,7,1,1,1,Team driver,10,3-5 days early,00:00.0,HOUSTON TX 77032-2530 US,HOUSTON,TX,West South Central Division,77032-2530,US,2354674,11/29/2021 13:32,11/22/2021 15:06,12/1/2021 22:52,12/2/2021 22:52,253,550,98.67,37.95,686.62,FRONTIER,HOUSTON TX 77032-2530 US,29.7589382,-95.3676974,32.9451916,-97.0019719,239.8308826,-13.1691174, 0.44 ,2021,12,1,2021Q12,Thrid Shift,Thursday
2357657,6,12/9/2021 23:59,00:00.0,4,1,1,1,Team driver,11,3-5 days early,00:00.0,HOUSTON TX 77032-2530 US,HOUSTON,TX,West South Central Division,77032-2530,US,2357657,12/7/2021 14:17,11/29/2021 16:33,12/9/2021 21:45,12/10/2021 21:45,253,550,98.67,37.95,686.62,FRONTIER,HOUSTON TX 77032-2530 US,29.7589382,-95.3676974,32.9451916,-97.0019719,239.8308826,-13.1691174, 0.33 ,2021,12,9,2021Q12,Second Shift,Friday
2357658,14,12/9/2021 23:59,00:00.0,1,1,1,1,Team driver,4,On Time,00:00.0,HOUSTON TX 77032-2530 US,HOUSTON,TX,West South Central Division,77032-2530,US,2357658,12/6/2021 14:30,12/6/2021 6:01,12/9/2021 21:39,12/10/2021 21:39,253,550,98.67,37.95,686.62,FRONTIER,HOUSTON TX 77032-2530 US,29.7589382,-95.3676974,32.9451916,-97.0019719,239.8308826,-13.1691174, 0.78 ,2021,12,9,2021Q12,Second Shift,Friday
2358810,5,12/15/2021 23:59,00:00.0,7,16,8,1,Team driver,7,> 5 days early,00:00.0,BOSSIER CITY LA 71111-7407 US,BOSSIER CITY,LA,West South Central Division,71111-7407,US,2358810,12/11/2021 13:55,12/9/2021 16:43,12/15/2021 21:53,12/16/2021 21:53,8463.2,14387.44,11509.95,1269.48,27166.87,FRONTIER,BOSSIER CITY LA 71111-7407 US,32.5369356,-93.6952689,32.9451916,-97.0019719,194.6117437,-8268.588256, 0.28 ,2021,12,15,2021Q12,Second Shift,Thursday
2359394,9,12/16/2021 23:59,00:00.0,6,3,1,4,Single Driver,24,3-5 days early,00:00.0,CANTON MI 48187-2435 US,CANTON,MI,East North Central Division,48187-2435,US,2359394,12/12/2021 9:26,11/23/2021 17:27,12/16/2021 19:56,12/20/2021 0:00,1148.59,1722.88,447.95,0,2170.83,FRONTIER,CANTON MI 48187-2435 US,42.3076547,-83.4868961,32.9451916,-97.0019719,980.8802637,-167.7067363, 0.50 ,2021,12,16,2021Q12,Second Shift,Friday
2369911,15,1/20/2022 23:59,00:00.0,7,16,8,1,Team driver,43,> 5 days early,00:00.0,BOSSIER CITY LA 71111 US,BOSSIER CITY,LA,West South Central Division,71111,US,2369911,1/19/2022 12:53,12/9/2021 13:58,1/20/2022 21:03,1/21/2022 21:03,8463.2,14387.44,11509.95,1269.48,27166.87,FRONTIER,BOSSIER CITY LA 71111 US,32.5369356,-93.6952689,32.9451916,-97.0019719,194.6117437,-8268.588256, 0.83 ,2022,1,20,2022Q01,Second Shift,Friday
2370482,10,1/21/2022 23:59,00:00.0,5,4,2,4,Single Driver,5,1-2 days early,00:00.0,WALLINGFORD CT 06492-5931 US,WALLINGFORD,CT,New England Division,06492-5931,US,2370482,1/18/2022 13:41,1/17/2022 13:41,1/21/2022 20:49,1/25/2022 0:00,1654,2944.12,760.84,0,3704.96,FRONTIER,WALLINGFORD CT 06492-5931 US,41.461612,-72.8227503,32.9451916,-97.0019719,1450.910177,-203.089823, 0.56 ,2022,1,21,2022Q01,Second Shift,Weekend
2370485,11,1/14/2022 23:59,00:00.0,5,4,2,8,Single Driver,7,3-5 days late,00:00.0,WALLINGFORD CT 06492-5931 US,WALLINGFORD,CT,New England Division,06492-5931,US,2370485,1/18/2022 15:25,1/11/2022 16:12,1/17/2022 17:06,1/25/2022 0:00,1654,2944.12,760.84,0,3704.96,FRONTIER,WALLINGFORD CT 06492-5931 US,41.461612,-72.8227503,32.9451916,-97.0019719,1450.910177,-203.089823, 0.61 ,2022,1,17,2022Q01,Second Shift,Tuesday
2371162,10,1/24/2022 23:59,00:00.0,4,3,2,4,Single Driver,6,1-2 days early,00:00.0,HENRICO VA 23228 US,HENRICO,VA,South Atlantic Division,23228,US,2371162,1/23/2022 20:34,1/19/2022 15:18,1/24/2022 21:54,1/28/2022 0:00,1279.73,1791.62,524.69,0,2316.31,FRONTIER,HENRICO VA 23228 US,37.4957023,-77.335257,32.9451916,-97.0019719,1153.485191,-126.243809, 0.56 ,2022,1,24,2022Q01,Second Shift,Tuesday
2371166,12,1/24/2022 23:59,00:00.0,4,4,2,4,Single Driver,4,1-2 days early,00:00.0,WALLINGFORD CT 06492-5931 US,WALLINGFORD,CT,New England Division,06492-5931,US,2371166,1/23/2022 8:01,1/21/2022 14:05,1/24/2022 22:36,1/28/2022 0:00,1654,2944.12,760.84,0,3704.96,FRONTIER,WALLINGFORD CT 06492-5931 US,41.461612,-72.8227503,32.9451916,-97.0019719,1450.910177,-203.089823, 0.67 ,2022,1,24,2022Q01,Thrid Shift,Tuesday
2371167,11,1/24/2022 23:59,00:00.0,4,4,2,4,Single Driver,5,1-2 days early,00:00.0,WALLINGFORD CT 06492-5931 US,WALLINGFORD,CT,New England Division,06492-5931,US,2371167,1/21/2022 17:16,1/20/2022 22:13,1/24/2022 23:25,1/28/2022 0:00,1654,2944.12,760.84,0,3704.96,FRONTIER,WALLINGFORD CT 06492-5931 US,41.461612,-72.8227503,32.9451916,-97.0019719,1450.910177,-203.089823, 0.61 ,2022,1,24,2022Q01,Thrid Shift,Tuesday
2371314,10,1/25/2022 23:59,00:00.0,3,3,2,2,Team driver,15,1-2 days early,00:00.0,LAUREL MD 20707-4512 US,LAUREL,MD,South Atlantic Division,20707-4512,US,2371314,1/22/2022 13:56,1/11/2022 16:43,1/25/2022 19:45,1/27/2022 19:45,1360,2475.2,571.2,204,3250.4,FRONTIER,LAUREL MD 20707-4512 US,39.1044123,-76.8669233,32.9451916,-97.0019719,1201.808926,-158.191074, 0.56 ,2022,1,25,2022Q01,Second Shift,Wednesday
2371411,8,1/25/2022 23:59,00:00.0,6,2,1,3,Single Driver,23,3-5 days early,00:00.0,WATERTOWN WI 53098 US,WATERTOWN,WI,East North Central Division,53098,US,2371411,1/23/2022 19:07,1/3/2022 18:43,1/25/2022 23:01,1/28/2022 0:00,996,1195.2,388.44,0,1583.64,FRONTIER,WATERTOWN WI 53098 US,43.1948481,-88.7286352,32.9451916,-97.0019719,837.5939929,-158.4060071, 0.44 ,2022,1,25,2022Q01,Thrid Shift,Wednesday
2371647,12,1/26/2022 23:59,00:00.0,5,3,2,5,Single Driver,6,1-2 days early,00:00.0,HAMILTON TOWNSHIP NJ 08611-3226 US,HAMILTON TOWNSHIP,NJ,Middle Atlantic Division,08611-3226,US,2371647,1/22/2022 9:53,1/21/2022 9:53,1/26/2022 21:03,1/31/2022 0:00,1503.8,2827.14,661.67,0,3488.82,FRONTIER,HAMILTON TOWNSHIP NJ 08611-3226 US,40.2307818,-74.7236162,32.9451916,-97.0019719,1332.145809,-171.654191, 0.67 ,2022,1,26,2022Q01,Second Shift,Thursday
2372210,14,1/27/2022 23:59,00:00.0,1,2,1,1,Team driver,6,On Time,00:00.0,ALPHARETTA GA 30005 US,ALPHARETTA,GA,South Atlantic Division,30005,US,2372210,1/23/2022 13:04,1/22/2022 13:04,1/27/2022 22:42,1/28/2022 22:42,826,1356.43,322.14,123.9,1802.47,FRONTIER,ALPHARETTA GA 30005 US,34.0709576,-84.2747329,32.9451916,-97.0019719,738.3929407,-87.6070593, 0.78 ,2022,1,27,2022Q01,Thrid Shift,Friday
2372903,6,2/1/2022 23:59,00:00.0,7,8,4,10,Single Driver,15,1-2 Days late,00:00.0,BOISE ID 83713-8960 US,BOISE,ID,Mountain Division,83713-8960,US,2372903,1/29/2022 0:54,1/18/2022 16:31,2/1/2022 22:14,2/11/2022 0:00,4283.1,7923.74,3469.31,0,11393.05,FRONTIER,BOISE ID 83713-8960 US,43.60081625,-11.62421101,32.9451916,-97.0019719,4495.122,212.022, 0.33 ,2022,2,1,2022Q02,Thrid Shift,Wednesday
2897579,1,5/3/2021 23:59,00:00.0,3,2,1,3,Single Driver,4,1-2 days early,00:00.0,BENSENVILLE IL 60106 US,BENSENVILLE,IL,East North Central Division,60106,US,2897579,5/2/2021 8:52,4/30/2021 20:07,5/3/2021 21:28,5/6/2021 0:00,925.8,2258.95,361.06,0,2620.01,SATELITE,BENSENVILLE IL 60106 US,41.9538384,-87.9431781,32.9451916,-97.0019719,795.2654749,-130.5345251, 0.06 ,2021,5,3,2021Q05,Second Shift,Tuesday
2897620,1,5/3/2021 23:59,00:00.0,7,3,2,8,Single Driver,5,On Time,00:00.0,MOORESTOWN NJ 08057-1367 US,MOORESTOWN,NJ,Middle Atlantic Division,08057-1367,US,2897620,5/2/2021 9:26,4/29/2021 18:49,5/3/2021 21:29,5/11/2021 0:00,1539,3755.16,677.16,0,4432.32,SATELITE,MOORESTOWN NJ 08057-1367 US,39.9670569,-74.9426677,32.9451916,-97.0019719,1316.259335,-222.740665, 0.06 ,2021,5,3,2021Q05,Second Shift,Tuesday
2902161,1,5/5/2021 23:59,00:00.0,7,2,1,7,Single Driver,6,1-2 days early,00:00.0,CHANDLER AZ 85226-4203 US,CHANDLER,AZ,Mountain Division,85226-4203,US,2902161,5/3/2021 14:40,4/30/2021 16:08,5/5/2021 21:34,5/12/2021 0:00,1049.7,2561.27,409.38,0,2970.65,SATELITE,CHANDLER AZ 85226-4203 US,33.2825043,-11.18672475,32.9451916,-97.0019719,4814.484306,3764.784306, 0.06 ,2021,5,5,2021Q05,Second Shift,Thursday
2902169,1,5/5/2021 23:59,00:00.0,5,4,2,7,Single Driver,5,1-2 Days late,00:00.0,VANCOUVER WA 98683-3400 US,VANCOUVER,WA,Pacific Division,98683-3400,US,2902169,5/2/2021 18:24,5/1/2021 18:24,5/5/2021 21:37,5/12/2021 0:00,2035.3,4966.13,1038,0,6004.14,SATELITE,VANCOUVER WA 98683-3400 US,45.6306954,-12.26744557,32.9451916,-97.0019719,4413.291954,2377.991954, 0.06 ,2021,5,5,2021Q05,Second Shift,Thursday
2903761,1,5/10/2021 23:59,00:00.0,4,2,1,7,Single Driver,8,3-5 days late,00:00.0,GRIFFIN GA 30224-4720 US,GRIFFIN,GA,South Atlantic Division,30224-4720,US,2903761,5/10/2021 9:57,5/4/2021 19:54,5/12/2021 0:03,5/19/2021 0:00,836,2039.84,326.04,0,2365.88,SATELITE,GRIFFIN GA 30224-4720 US,38.0880543,-84.48436616,32.9451916,-97.0019719,788.6704679,-47.3295321, 0.06 ,2021,5,12,2021Q05,Thrid Shift,Thursday
2903762,1,5/10/2021 23:59,00:00.0,4,2,1,5,Single Driver,26,1-2 Days late,00:00.0,LITHONIA GA 30058-4613 US,LITHONIA,GA,South Atlantic Division,30058-4613,US,2903762,5/9/2021 5:19,4/16/2021 16:38,5/12/2021 0:04,5/17/2021 0:00,829,2022.76,323.31,0,2346.07,SATELITE,LITHONIA GA 30058-4613 US,33.7123305,-84.1051939,32.9451916,-97.0019719,747.4969934,-81.5030066, 0.06 ,2021,5,12,2021Q05,Thrid Shift,Thursday
2903840,1,5/10/2021 23:59,00:00.0,4,3,2,7,Single Driver,6,3-5 days late,00:00.0,MOORESTOWN NJ 08057-1367 US,MOORESTOWN,NJ,Middle Atlantic Division,08057-1367,US,2903840,5/9/2021 18:06,5/6/2021 17:22,5/12/2021 0:06,5/19/2021 0:00,1539,3755.16,677.16,0,4432.32,SATELITE,MOORESTOWN NJ 08057-1367 US,39.9670569,-74.9426677,32.9451916,-97.0019719,1316.259335,-222.740665, 0.06 ,2021,5,12,2021Q05,Thrid Shift,Thursday
2905972,1,5/17/2021 23:59,00:00.0,4,3,2,16,Single Driver,7,>9 days late,00:00.0,MOORESTOWN NJ 08057-1367 US,MOORESTOWN,NJ,Middle Atlantic Division,08057-1367,US,2905972,5/15/2021 17:43,5/11/2021 15:04,5/17/2021 22:49,6/2/2021 0:00,1539,3755.16,677.16,0,4432.32,SATELITE,MOORESTOWN NJ 08057-1367 US,39.9670569,-74.9426677,32.9451916,-97.0019719,1316.259335,-222.740665, 0.06 ,2021,5,17,2021Q05,Thrid Shift,Tuesday
2906083,1,5/17/2021 23:59,00:00.0,7,4,2,8,Single Driver,132,On Time,00:00.0,TAUNTON MA 02780-7364 US,TAUNTON,MA,New England Division,02780-7364,US,2906083,5/13/2021 0:22,1/6/2021 2:08,5/17/2021 22:50,5/25/2021 0:00,1756,4284.64,825.32,0,5109.96,SATELITE,TAUNTON MA 02780-7364 US,41.8946107,-71.11113,32.9451916,-97.0019719,1544.236873,-211.763127, 0.06 ,2021,5,17,2021Q05,Thrid Shift,Tuesday
2910413,1,5/20/2021 23:59,00:00.0,7,2,1,6,Single Driver,4,1-2 days early,00:00.0,ELK GROVE VILLAGE IL 60007-2224 US,ELK GROVE VILLAGE,IL,East North Central Division,60007-2224,US,2910413,5/17/2021 21:50,5/16/2021 21:50,5/20/2021 19:34,5/26/2021 0:00,922,2249.68,359.58,0,2609.26,SATELITE,ELK GROVE VILLAGE IL 60007-2224 US,42.0041236,-87.9706457,32.9451916,-97.0019719,796.9307896,-125.0692104, 0.06 ,2021,5,20,2021Q05,Second Shift,Friday
2911800,1,5/24/2021 23:59,00:00.0,7,4,2,8,Single Driver,5,On Time,00:00.0,HOPKINTON MA 01748-2237 US,HOPKINTON,MA,New England Division,01748-2237,US,2911800,5/21/2021 15:57,5/20/2021 20:41,5/24/2021 21:11,6/1/2021 0:00,1807,4409.08,867.36,0,5276.44,SATELITE,HOPKINTON MA 01748-2237 US,42.2288875,-71.5196439,32.9451916,-97.0019719,1530.25598,-276.74402, 0.06 ,2021,5,24,2021Q05,Second Shift,Tuesday
2920211,1,6/1/2021 23:59,00:00.0,6,3,2,6,Single Driver,79,1-2 days early,00:00.0,RANCHO CUCAMONGA CA 91730 US,RANCHO CUCAMONGA,CA,Pacific Division,91730,US,2920211,5/28/2021 22:00,3/15/2021 18:59,6/1/2021 21:24,6/7/2021 0:00,1394,3401.36,585.48,0,3986.84,SATELITE,RANCHO CUCAMONGA CA 91730 US,34.1279268,-11.75643221,32.9451916,-97.0019719,4759.14191,3365.14191, 0.06 ,2021,6,1,2021Q06,Second Shift,Wednesday
2921436,1,6/4/2021 23:59,00:00.0,4,2,1,5,Team driver,4,1-2 Days late,00:00.0,PHOENIX AZ 85040-1742 US,PHOENIX,AZ,Mountain Division,85040-1742,US,2921436,6/2/2021 14:15,6/1/2021 14:15,6/4/2021 22:50,6/9/2021 22:50,1057.3,2579.81,412.35,158.6,3150.75,SATELITE,PHOENIX AZ 85040-1742 US,33.6063585,-11.20473309,32.9451916,-97.0019719,4803.538348,3746.238348, 0.06 ,2021,6,4,2021Q06,Thrid Shift,Weekend
2921880,2,6/7/2021 23:59,00:00.0,7,4,2,12,Single Driver,5,3-5 days late,00:00.0,WILMINGTON MA 1887 US,WILMINGTON,MA,New England Division,1887,US,2921880,6/5/2021 13:15,6/3/2021 18:39,6/7/2021 23:23,6/19/2021 0:00,1784.2,4353.45,838.57,0,5192.02,SATELITE,WILMINGTON MA 1887 US,39.75142609,-75.54289955,32.9451916,-97.0019719,1281.615433,-502.584567, 0.11 ,2021,6,7,2021Q06,Thrid Shift,Tuesday
2921885,2,6/7/2021 23:59,00:00.0,7,4,2,14,Single Driver,5,6-9 days late,00:00.0,HOPKINTON MA 01748-2237 US,HOPKINTON,MA,New England Division,01748-2237,US,2921885,6/5/2021 8:53,6/3/2021 20:19,6/7/2021 23:24,6/21/2021 0:00,1807,4409.08,867.36,0,5276.44,SATELITE,HOPKINTON MA 01748-2237 US,42.2288875,-71.5196439,32.9451916,-97.0019719,1530.25598,-276.74402, 0.11 ,2021,6,7,2021Q06,Thrid Shift,Tuesday
2926035,1,6/9/2021 23:59,00:00.0,5,5,2,16,Single Driver,9,>9 days late,00:00.0,FEDERAL WAY WA 98023-2883 US,FEDERAL WAY,WA,Pacific Division,98023-2883,US,2926035,6/6/2021 19:25,6/1/2021 14:58,6/9/2021 21:30,6/25/2021 0:00,2230,5441.2,1181.9,0,6623.1,SATELITE,FEDERAL WAY WA 98023-2883 US,47.313494,-12.23393103,32.9451916,-97.0019719,4373.249692,2143.249692, 0.06 ,2021,6,9,2021Q06,Second Shift,Thursday
2931054,1,6/14/2021 23:59,00:00.0,7,4,2,18,Single Driver,4,>9 days late,00:00.0,HOPKINTON MA 01748-2237 US,HOPKINTON,MA,New England Division,01748-2237,US,2931054,6/11/2021 18:23,6/10/2021 23:26,6/14/2021 22:02,7/2/2021 0:00,1807,4409.08,867.36,0,5276.44,SATELITE,HOPKINTON MA 01748-2237 US,42.2288875,-71.5196439,32.9451916,-97.0019719,1530.25598,-276.74402, 0.06 ,2021,6,14,2021Q06,Thrid Shift,Tuesday
2931872,1,6/16/2021 23:59,00:00.0,5,3,2,12,Single Driver,4,6-9 days late,00:00.0,WHARTON NJ 07885-1800 US,WHARTON,NJ,Middle Atlantic Division,07885-1800,US,2931872,6/14/2021 13:35,6/13/2021 13:35,6/16/2021 22:51,6/28/2021 0:00,1529,3730.76,672.76,0,4403.52,SATELITE,WHARTON NJ 07885-1800 US,40.8931546,-74.5818254,32.9451916,-97.0019719,1351.855597,-177.144403, 0.06 ,2021,6,16,2021Q06,Thrid Shift,Thursday
2931949,1,6/16/2021 23:59,00:00.0,7,2,1,6,Single Driver,6,1-2 days early,00:00.0,LITHONIA GA 30058 US,LITHONIA,GA,South Atlantic Division,30058,US,2931949,6/12/2021 20:34,6/11/2021 20:34,6/16/2021 23:01,6/22/2021 0:00,829,2022.76,323.31,0,2346.07,SATELITE,LITHONIA GA 30058 US,33.7123305,-84.1051939,32.9451916,-97.0019719,747.4969934,-81.5030066, 0.06 ,2021,6,16,2021Q06,Thrid Shift,Thursday
2932732,1,6/18/2021 23:59,00:00.0,7,3,2,5,Single Driver,15,3-5 days early,00:00.0,AMERICAN FORK UT 84003-5135 US,AMERICAN FORK,UT,Mountain Division,84003-5135,US,2932732,6/16/2021 7:28,6/4/2021 12:58,6/18/2021 22:53,6/23/2021 0:00,1384,3376.96,581.28,0,3958.24,SATELITE,AMERICAN FORK UT 84003-5135 US,40.3768064,-11.17959146,32.9451916,-97.0019719,4604.43697,3220.43697, 0.06 ,2021,6,18,2021Q06,Thrid Shift,Weekend
2932963,1,6/18/2021 23:59,00:00.0,9,2,1,7,Single Driver,6,3-5 days early,00:00.0,LITHONIA GA 30058 US,LITHONIA,GA,South Atlantic Division,30058,US,2932963,6/14/2021 21:29,6/13/2021 21:29,6/18/2021 22:24,6/25/2021 0:00,829,2022.76,323.31,0,2346.07,SATELITE,LITHONIA GA 30058 US,33.7123305,-84.1051939,32.9451916,-97.0019719,747.4969934,-81.5030066, 0.06 ,2021,6,18,2021Q06,Thrid Shift,Weekend
2933358,1,6/21/2021 23:59,00:00.0,7,3,2,7,Single Driver,7,1-2 days early,00:00.0,TOMS RIVER NJ 8753 US,TOMS RIVER,NJ,Middle Atlantic Division,8753,US,2933358,6/17/2021 1:10,6/15/2021 14:12,6/21/2021 18:58,6/28/2021 0:00,1597.8,3898.63,719.01,0,4617.64,SATELITE,TOMS RIVER NJ 8753 US,39.996198,-74.14986726,32.9451916,-97.0019719,1357.544408,-240.255592, 0.06 ,2021,6,21,2021Q06,Second Shift,Tuesday
2950581,1,7/7/2021 23:59,00:00.0,7,5,2,8,Single Driver,22,On Time,00:00.0,FEDERAL WAY WA 98023-7701 US,FEDERAL WAY,WA,Pacific Division,98023-7701,US,2950581,7/4/2021 11:43,6/16/2021 19:50,7/7/2021 21:22,7/15/2021 0:00,2230,5441.2,1181.9,0,6623.1,SATELITE,FEDERAL WAY WA 98023-7701 US,47.313494,-12.23393103,32.9451916,-97.0019719,4373.249692,2143.249692, 0.06 ,2021,7,7,2021Q07,Second Shift,Thursday
2961329,1,7/21/2021 23:59,00:00.0,7,3,2,6,Single Driver,4,1-2 days early,00:00.0,CHINO CA 91710 US,CHINO,CA,Pacific Division,91710,US,2961329,7/19/2021 7:23,7/18/2021 7:23,7/21/2021 21:59,7/27/2021 0:00,1403.5,3424.54,589.47,0,4014.01,SATELITE,CHINO CA 91710 US,34.0133561,-11.7690075,32.9451916,-97.0019719,4761.983416,3358.483416, 0.06 ,2021,7,21,2021Q07,Second Shift,Thursday
2962191,1,7/23/2021 23:59,00:00.0,7,3,2,8,Single Driver,181,3-5 days late,00:00.0,TOMS RIVER NJ 8753 US,TOMS RIVER,NJ,Middle Atlantic Division,8753,US,2962191,7/25/2021 12:01,1/27/2021 1:31,7/26/2021 20:54,8/3/2021 0:00,1597.8,3898.63,719.01,0,4617.64,SATELITE,TOMS RIVER NJ 8753 US,39.996198,-74.14986726,32.9451916,-97.0019719,1357.544408,-240.255592, 0.06 ,2021,7,26,2021Q07,Second Shift,Tuesday
2963304,1,7/26/2021 23:59,00:00.0,4,2,1,8,Single Driver,5,3-5 days late,00:00.0,GRIFFIN GA 30224-4720 US,GRIFFIN,GA,South Atlantic Division,30224-4720,US,2963304,7/22/2021 18:10,7/22/2021 16:13,7/26/2021 20:38,8/3/2021 0:00,836,2039.84,326.04,0,2365.88,SATELITE,GRIFFIN GA 30224-4720 US,38.0880543,-84.48436616,32.9451916,-97.0019719,788.6704679,-47.3295321, 0.06 ,2021,7,26,2021Q07,Second Shift,Tuesday
2963305,1,7/26/2021 23:59,00:00.0,4,3,2,8,Single Driver,4,3-5 days late,00:00.0,MURRAY UT 84107-6990 US,MURRAY,UT,Mountain Division,84107-6990,US,2963305,7/23/2021 18:17,7/23/2021 9:56,7/26/2021 20:46,8/3/2021 0:00,1389,3389.16,583.38,0,3972.54,SATELITE,MURRAY UT 84107-6990 US,40.6667841,-11.1888417,32.9451916,-97.0019719,4595.823748,3206.823748, 0.06 ,2021,7,26,2021Q07,Second Shift,Tuesday
2963998,1,7/28/2021 23:59,00:00.0,5,3,2,7,Single Driver,13,1-2 Days late,00:00.0,FULLERTON CA 92831 US,FULLERTON,CA,Pacific Division,92831,US,2963998,7/27/2021 13:14,7/16/2021 20:05,7/28/2021 20:21,8/4/2021 0:00,1407,3433.08,590.94,0,4024.02,SATELITE,FULLERTON CA 92831 US,33.8739385,-11.79243399,32.9451916,-97.0019719,4765.02708,3358.02708, 0.06 ,2021,7,28,2021Q07,Second Shift,Thursday
2973481,1,8/3/2021 23:59,00:00.0,5,2,1,5,Single Driver,5,On Time,00:00.0,ALPHARETTA GA 30005 US,ALPHARETTA,GA,South Atlantic Division,30005,US,2973481,8/1/2021 5:43,7/31/2021 5:43,8/4/2021 20:16,8/9/2021 0:00,830.4,2026.18,323.86,0,2350.03,SATELITE,ALPHARETTA GA 30005 US,34.0709576,-84.2747329,32.9451916,-97.0019719,738.3929407,-92.0070593, 0.06 ,2021,8,4,2021Q08,Second Shift,Thursday
2979120,1,8/10/2021 23:59,00:00.0,7,2,1,7,Single Driver,7,1-2 days early,00:00.0,LITHONIA GA 30058-4613 US,LITHONIA,GA,South Atlantic Division,30058-4613,US,2979120,8/6/2021 18:49,8/4/2021 15:31,8/10/2021 23:13,8/17/2021 0:00,829,2022.76,323.31,0,2346.07,SATELITE,LITHONIA GA 30058-4613 US,33.7123305,-84.1051939,32.9451916,-97.0019719,747.4969934,-81.5030066, 0.06 ,2021,8,10,2021Q08,Thrid Shift,Wednesday
2979140,1,8/10/2021 23:59,00:00.0,7,3,2,4,Single Driver,9,1-2 days early,00:00.0,BROOKLYN NY 11201-6410 US,BROOKLYN,NY,Middle Atlantic Division,11201-6410,US,2979140,8/9/2021 10:44,8/4/2021 15:54,8/12/2021 22:29,8/16/2021 0:00,1575,3843,693,0,4536,SATELITE,BROOKLYN NY 11201-6410 US,40.6526006,-73.9497211,32.9451916,-97.0019719,1379.149027,-195.850973, 0.06 ,2021,8,12,2021Q08,Thrid Shift,Friday
2983816,1,8/11/2021 23:59,00:00.0,5,4,2,5,Single Driver,6,1-2 days early,00:00.0,HOPKINTON MA 01748-2213 US,HOPKINTON,MA,New England Division,01748-2213,US,2983816,8/7/2021 1:44,8/6/2021 1:44,8/11/2021 22:01,8/16/2021 0:00,1806,4406.64,866.88,0,5273.52,SATELITE,HOPKINTON MA 01748-2213 US,42.2288875,-71.5196439,32.9451916,-97.0019719,1530.25598,-275.74402, 0.06 ,2021,8,11,2021Q08,Thrid Shift,Thursday
2984486,3,8/13/2021 23:59,00:00.0,7,3,2,10,Single Driver,152,1-2 Days late,00:00.0,TOMS RIVER NJ 8753 US,TOMS RIVER,NJ,Middle Atlantic Division,8753,US,2984486,8/12/2021 16:54,3/15/2021 14:54,8/13/2021 23:27,8/23/2021 0:00,1597.8,3898.63,719.01,0,4617.64,SATELITE,TOMS RIVER NJ 8753 US,39.996198,-74.14986726,32.9451916,-97.0019719,1357.544408,-240.255592, 0.17 ,2021,8,13,2021Q08,Thrid Shift,Weekend
2986086,1,8/18/2021 23:59,00:00.0,6,3,2,6,Single Driver,27,1-2 days early,00:00.0,CITY OF INDUSTRY CA 91748-1862 US,CITY OF INDUSTRY,CA,Pacific Division,91748-1862,US,2986086,8/16/2021 9:42,7/23/2021 21:30,8/18/2021 23:01,8/24/2021 0:00,1431.1,3491.88,615.37,0,4107.26,SATELITE,CITY OF INDUSTRY CA 91748-1862 US,34.0182252,-11.79593061,32.9451916,-97.0019719,4760.448952,3329.348952, 0.06 ,2021,8,18,2021Q08,Thrid Shift,Thursday
2990302,1,8/20/2021 23:59,00:00.0,3,2,1,5,Single Driver,2,1-2 Days late,00:00.0,BENSENVILLE IL 60106 US,BENSENVILLE,IL,East North Central Division,60106,US,2990302,8/19/2021 13:07,8/19/2021 2:21,8/20/2021 22:51,8/25/2021 0:00,925.8,2258.95,361.06,0,2620.01,SATELITE,BENSENVILLE IL 60106 US,41.9538384,-87.9431781,32.9451916,-97.0019719,795.2654749,-130.5345251, 0.06 ,2021,8,20,2021Q08,Thrid Shift,Weekend
2990702,1,8/23/2021 23:59,00:00.0,4,1,1,3,Single Driver,33,1-2 days early,00:00.0,KENNER LA 70062 US,KENNER,LA,West South Central Division,70062,US,2990702,8/22/2021 17:28,7/23/2021 17:52,8/24/2021 22:51,8/27/2021 0:00,512.9,1251.48,200.03,0,1451.51,SATELITE,KENNER LA 70062 US,29.9942265,-90.2417806,32.9451916,-97.0019719,447.8457424,-65.0542576, 0.06 ,2021,8,24,2021Q08,Thrid Shift,Wednesday
2990703,2,8/23/2021 23:59,00:00.0,3,3,2,2,Team driver,6,On Time,00:00.0,COLUMBIA MD 21045-2165 US,COLUMBIA,MD,South Atlantic Division,21045-2165,US,2990703,8/23/2021 11:32,8/19/2021 13:51,8/25/2021 0:27,8/27/2021 0:27,1363,3325.72,572.46,204.45,4102.63,SATELITE,COLUMBIA MD 21045-2165 US,39.1938429,-76.86460919,32.9451916,-97.0019719,1203.483954,-159.516046, 0.11 ,2021,8,25,2021Q08,Thrid Shift,Thursday
2990704,2,8/23/2021 23:59,00:00.0,3,2,1,3,Single Driver,5,On Time,00:00.0,MARSHALL WI 53559 US,MARSHALL,WI,East North Central Division,53559,US,2990704,8/23/2021 7:05,8/19/2021 13:19,8/24/2021 1:23,8/27/2021 0:00,987.1,2408.52,384.97,0,2793.49,SATELITE,MARSHALL WI 53559 US,43.1683286,-89.0667775,32.9451916,-97.0019719,826.380382,-160.719618, 0.11 ,2021,8,24,2021Q08,Thrid Shift,Wednesday
2990707,1,8/23/2021 23:59,00:00.0,4,2,1,6,Single Driver,36,1-2 Days late,00:00.0,WAUCONDA IL 60084 US,WAUCONDA,IL,East North Central Division,60084,US,2990707,8/23/2021 1:00,7/19/2021 14:17,8/24/2021 1:23,8/30/2021 0:00,949.6,2317.02,370.34,0,2687.37,SATELITE,WAUCONDA IL 60084 US,42.277067,-88.12582979,32.9451916,-97.0019719,806.041663,-143.558337, 0.06 ,2021,8,24,2021Q08,Thrid Shift,Wednesday
2990708,1,8/23/2021 23:59,00:00.0,3,4,2,5,Single Driver,6,3-5 days late,00:00.0,KENT WA 98032-4431 US,KENT,WA,Pacific Division,98032-4431,US,2990708,8/20/2021 4:39,8/19/2021 12:40,8/25/2021 0:36,8/30/2021 0:00,2177,5311.88,1153.81,0,6465.69,SATELITE,KENT WA 98032-4431 US,47.3826903,-12.22270272,32.9451916,-97.0019719,4372.066033,2195.066033, 0.06 ,2021,8,25,2021Q08,Thrid Shift,Thursday
